store_id,pref_id,shop_name,address,lat,lon
0000003403,"",柏逆井店,千葉県柏市逆井１丁目６番１２号,35.819724,139.98538
0000003404,"",板付バス停前店,福岡県福岡市博多区西月隈３－８－４,33.566509,130.454117
0000003405,"",北九大前店,福岡県北九州市小倉南区北方２－２１－１,33.842842,130.881901
0000003407,"",針摺店,福岡県筑紫野市永岡１８６－７,33.479359,130.546282
0000003410,"",仙台砂押店,仙台市太白区砂押町２２ー２９,38.222279,140.867852
0000003411,"",松戸郵便局前店,千葉県松戸市松戸１７５３,35.776744,139.900299
0000003412,"",浦安海楽店,千葉県浦安市海楽２－４－１,35.655182,139.908408
0000003414,"",和光店,埼玉県和光市本町１８ー３,35.781118,139.612749
0000003415,"",北仙台駅前店,宮城県仙台市青葉区昭和町３－２７,38.276854,140.87323
0000003416,"",杉並日大二高店,東京都杉並区天沼２－４３－１８,35.708179,139.628806
0000003417,"",帯広南５線店,北海道帯広市西１７条南５丁目１１ー５１,42.902422,143.176885
0000003419,"",千葉幸町店,千葉県千葉市美浜区幸町１丁目１５－１,35.612199,140.102086
0000003420,"",流山東深井店,流山市東深井２８４,35.908134,139.907938
0000003423,"",京都大石橋店,京都府京都市南区東九条南烏丸町３２ー２,34.976145,135.763416
0000003424,"",館林台宿町店,群馬県館林市台宿町３－１０,36.25004,139.53898
0000003426,"",相模原宮下店,神奈川県相模原市中央区宮下本町２－１０－１,35.588844,139.371585
0000003427,"",小倉馬借店,北九州市小倉北区馬借２－６－２,33.875215,130.881924
0000003428,"",越谷大成町店,越谷市大成町６－１３７－１,35.885113,139.827486
0000003429,"",伊奈栄店,埼玉県北足立郡伊奈町栄４丁目１６３番地１,35.976474,139.644166
0000003430,"",小田原本町店,神奈川県小田原市本町２－７－６,35.247163,139.163883
0000003432,"",館林本町店,群馬県館林市本町４－６－６,36.238512,139.536844
0000003433,"",九産大前店,福岡県福岡市東区松香台１丁目４番５号,33.664373,130.447062
0000003434,"",川崎小向店,神奈川県川崎市幸区小向西町３－１２,35.545296,139.69166
0000003435,"",豊玉上店,東京都練馬区豊玉上２－２２－１１,35.734221,139.663961
0000003436,"",門司港松本店,福岡県北九州市門司区栄町１１－１６,33.943778,130.970315
0000003437,"",習志野大久保店,千葉県習志野市大久保２－１－１,35.682857,140.052988
0000003438,"",平塚高村店,神奈川県平塚市根坂間２４４－２,35.333362,139.310086
0000003439,"",荒川町屋店,東京都荒川区町屋２－８－４,35.740091,139.782966
0000003440,"",市川本塩店,市川市本塩１７－９,35.68626,139.92425
0000003441,"",府中紅葉丘店,東京都府中市紅葉丘１－３９－１３,35.673904,139.517991
0000003444,"",調布富士見町店,調布市富士見町３－２４－１,35.660815,139.545596
0000003445,"",伊勢原峰岸店,伊勢原市上粕屋４０７－２,35.401001,139.303955
0000003446,"",川崎鹿島田店,川崎市幸区下平間２１３,35.548413,139.683641
0000003447,"",越谷一の橋店,埼玉県越谷市大間野町４ー２０５－１,35.861096,139.778549
0000003448,"",板橋前野町店,東京都板橋区前野町４－２１－１,35.76724,139.694664
0000003449,"",大仁店,静岡県伊豆の国市御門６５－５,35.014257,138.948244
0000003450,"",千種店,千葉県千葉市花見川区千種町２５３－６,35.676044,140.113208
0000003451,"",下総成井店,千葉県成田市成井３８３－２,35.843299,140.380758
0000003452,"",江東毛利店,東京都江東区毛利１－６－１０,35.68886,139.816433
0000003453,"",綾瀬店,東京都足立区綾瀬５－２－１５,35.762985,139.828122
0000003454,"",浦賀店,神奈川県横須賀市浦賀３－１６－４,35.24852,139.715692
0000003455,"",横須賀中央店,神奈川県横須賀市大滝町１－２１－１,35.27994,139.672099
0000003456,"",東菅野店,千葉県市川市東菅野３ー１ー１１,35.728035,139.933613
0000003457,"",西日暮里六丁目店,東京都荒川区西日暮里６－５１－６,35.733387,139.77183
0000003458,"",越谷宮本店,埼玉県越谷市宮本町１ー１７９,35.887471,139.784158
0000003459,"",浅草馬道店,台東区浅草６ー１０ー２,35.712774,139.802135
0000003460,"",五所店,千葉県市原市五所１３６８－１,35.524127,140.110183
0000003461,"",成瀬店,東京都町田市成瀬７丁目１－２０,35.53984,139.476133
0000003462,"",岡部店,福島県福島市岡島字砂入１７－１,37.780168,140.505432
0000003463,"",東金町店,東京都葛飾区東金町３ー１７ー１１,35.767359,139.87626
0000003464,"",多摩永山店,多摩市永山１ー２ー１３,35.629257,139.45066
0000003465,"",若葉台店,春日市若葉台東１ー２,33.527006,130.464751
0000003466,"",横浜高砂町店,横浜市南区高砂町１ー６,35.430593,139.624199
0000003467,"",滝川滝新通り店,北海道滝川市空知町２ー５－１３,43.546136,141.91276
0000003468,"",富浜店,市川市富浜３ー１６ー７,35.683004,139.926216
0000003469,"",板橋４丁目店,東京都板橋区板橋４－４８－４,35.74864,139.723816
0000003470,"",鳩ケ谷南店,埼玉県川口市南鳩ヶ谷５－１２－１,35.81416,139.738688
0000003474,"",千鳥橋店,福岡市博多区千代５－３－３１,33.604748,130.412854
0000003475,"",長渕店,青梅市長渕４－２２９－１,35.774737,139.27771
0000003477,"",与野西店,埼玉県さいたま市中央区上落合５－９－１３,35.892815,139.629999
0000003479,"",南品川店,東京都品川区南品川５－４－１,35.607765,139.744588
0000003480,"",上田原店,長野県上田市大字上田原７１３,36.387691,138.224916
0000003482,"",三ツ池店,神奈川県横浜市鶴見区下末吉６－２５－４５,35.519216,139.672561
0000003483,"",越谷西口店,埼玉県越谷市赤山本町１５番地１,35.882141,139.787249
0000003484,"",いわき草野店,福島県いわき市平下神谷字出口３５ー１８,37.069621,140.955052
0000003485,"",洋光台店,横浜市磯子区洋光台５－３－６,35.373123,139.597179
0000003487,"",新本宮店,福島県本宮市本宮字万世１８４－１,37.509763,140.398419
0000003488,"",須坂南店,長野県須坂市墨坂南２丁目３番４０号,36.64449,138.298455
0000003490,"",結城中央店,茨城県結城市結城１１０,36.299962,139.878994
0000003491,"",広島下河内店,広島市佐伯区五日市町下河内１３２６ー６,34.428498,132.309541
0000003492,"",篠崎店,東京都江戸川区南篠崎町１ー２６ー２１,35.69221,139.91326
0000003493,"",大宮三橋店,埼玉県さいたま市西区三橋６－１１０－４,35.909779,139.592774
0000003494,"",長泉店,静岡県駿東郡長泉町納米里１６９の８,35.143091,138.900878
0000003496,"",中島店,福島県いわき市小名浜字下明神町１２,36.946771,140.911488
0000003497,"",登戸店,千葉県千葉市中央区登戸２ー７ー３,35.607465,140.112452
0000003498,"",弁天町店,千葉県千葉市中央区弁天２丁目１６番１６号,35.613173,140.120818
0000003499,"",下連雀店,東京都三鷹市下連雀２ー２７ー８,35.694726,139.569311
0000003500,"",十二社店,東京都新宿区西新宿４－２－１５－１０１,35.687085,139.689158
0000003503,"",東雲店,東京都江東区東雲１－８－１７,35.642018,139.803916
0000003504,"",柴又駅前店,東京都葛飾区柴又４－１１－１０,35.752799,139.879669
0000003505,"",南新小岩店,東京都葛飾区新小岩３－７－３,35.712165,139.867358
0000003506,"",元八王子店,東京都八王子市元八王子町１－４４９,35.66256,139.291741
0000003508,"",飯田町店,成田市飯田町１３６－３,35.762671,140.304627
0000003509,"",杉並天沼店,杉並区本天沼２－４３－１１,35.713229,139.63013
0000003510,"",蒲田駅前店,東京都大田区蒲田５－７－８,35.559765,139.722947
0000003511,"",梶ケ谷大塚店,神奈川県川崎市高津区下作延３－２３－１７,35.588624,139.599958
0000003512,"",南７条店,札幌市中央区南７条西１１丁目２番７号,43.048591,141.345654
0000003513,"",古市場店,神奈川県川崎市幸区古市場１－３２,35.55081,139.687321
0000003514,"",郡山日大前店,福島県郡山市田村町徳定字下河原３７,37.359632,140.386533
0000003515,"",大森東店,東京都大田区大森東４－１４－３,35.564768,139.743549
0000003516,"",かけまま店,千葉県市川市欠真間２－１８－２３,35.675929,139.906663
0000003517,"",高円寺北店,東京都杉並区高円寺北４－４０－８,35.707512,139.648946
0000003518,"",西池袋二又店,東京都豊島区西池袋５－２－１２,35.728473,139.70933
0000003519,"",猪苗代駅通り店,耶麻郡猪苗代町大字磐里字村東２ー１,37.550949,140.109511
0000003520,"",宮寺店,埼玉県入間市宮寺５４１－２,35.789679,139.383694
0000003521,"",城前店,会津若松市東栄町８ー５３,37.488554,139.934463
0000003522,"",五井店,市原市飯沼１３７ー１,35.501854,140.07561
0000003524,"",西戸塚店,神奈川県横浜市戸塚区戸塚町３１６３,35.388479,139.524488
0000003525,"",豊平５条店,札幌市豊平区豊平５条２ー３ー６,43.050152,141.370946
0000003526,"",草加住吉店,埼玉県草加市住吉１－１１－１－１０３,35.828346,139.809464
0000003527,"",平塚西口店,神奈川県平塚市紅谷町１７番１号,35.324394,139.349408
0000003528,"",浦和常盤店,埼玉県さいたま市浦和区常盤７－１６－２２,35.86026,139.647585
0000003529,"",蘇我店,千葉県千葉市中央区蘇我３－１－５,35.566888,140.132796
0000003531,"",森合店,福島県福島市森合字屋敷下３８－１６,37.76159,140.459746
0000003532,"",朝日橋店,東京都目黒区青葉台１－２９－６,35.643599,139.699352
0000003533,"",千駄ケ谷店,渋谷区千駄ケ谷４－２１－５,35.676816,139.709919
0000003534,"",荒川店,荒川区荒川３－５２－４,35.732779,139.782864
0000003535,"",向原店,千葉県千葉市花見川区幕張町５－４０８,35.651879,140.062994
0000003536,"",板橋３丁目店,東京都板橋区板橋３－１８－１０,35.749391,139.715711
0000003537,"",川口元郷店,埼玉県川口市元郷５ー１９ー７,35.794435,139.740644
0000003538,"",蓮根店,東京都板橋区蓮根３－１３－１９,35.784946,139.682805
0000003539,"",東日暮里店,東京都荒川区東日暮里３－３３－６,35.727643,139.782721
0000003540,"",福生西口店,福生市本町１４２,35.738417,139.330693
0000003541,"",鹿沼奈佐原店,栃木県鹿沼市奈佐原町１７８ー１,36.513563,139.755635
0000003542,"",清水ケ丘店,東京都府中市清水が丘３－２１－３,35.663818,139.507452
0000003543,"",苅宿店,神奈川県川崎市中原区苅宿２３－１,35.559154,139.665177
0000003544,"",清水池店,東京都目黒区目黒本町２ー１１ー１１,35.621032,139.696197
0000003545,"",七瀬店,長野県長野市高田１０３３－２,36.638002,138.205643
0000003546,"",通町店,横浜市南区通町２－３２,35.424152,139.609504
0000003547,"",戸倉店,長野県千曲市磯部１０４６－１,36.47791,138.154863
0000003548,"",神山店,東京都渋谷区神山町２４－３,35.659443,139.6911
0000003549,"",中目黒店,東京都目黒区中目黒２－７－１４,35.634982,139.707927
0000003550,"",南八幡店,千葉県市川市南八幡１－１０－１,35.714668,139.932942
0000003551,"",金町店,東京都葛飾区金町３－２１－１３,35.763855,139.877583
0000003552,"",北池袋店,豊島区池袋本町４－３０－１４,35.740637,139.719596
0000003553,"",広丘駅前店,長野県塩尻市大字広丘原新田２１５番地２０,36.145352,137.950621
0000003554,"",西船店,千葉県船橋市西船４－２２－２,35.70526,139.961861
0000003555,"",蓮沼店,東京都大田区東矢口３－６－３,35.560919,139.709921
0000003557,"",松川駅前店,福島県福島市松川町字中原１３番地,37.651308,140.487783
0000003558,"",結城店,白河市字結城５５,37.117285,140.230849
0000003559,"",勝田台店,八千代市勝田台２－１６－１,35.708541,140.128208
0000003560,"",八幡店,千葉県市川市八幡２－３－２２,35.719788,139.93255
0000003561,"",浅草店,台東区浅草５－６４－４,35.718732,139.800807
0000003562,"",早稲田店,新宿区早稲田鶴巻町５２１,35.704146,139.728522
0000003563,"",平安町店,神奈川県横浜市鶴見区平安町１－５２－６,35.511484,139.693894
0000003564,"",浜野店,千葉県千葉市中央区浜野町１０２０,35.551779,140.132941
0000003565,"",太平寺店,福島県福島市太平寺町ノ内１,37.728018,140.462741
0000003566,"",溝の口店,川崎市高津区久本１ー２ー５,35.59566,139.6122
0000003567,"",上原店,東京都渋谷区上原１－３－４,35.665041,139.690269
0000003568,"",東尾久店,東京都荒川区東尾久２－４４－１１,35.74061,139.77266
0000003569,"",上十条店,東京都北区上十条３－５－１０,35.757723,139.721268
0000003570,"",小名浜花畑店,いわき市小名浜花畑４６－１０,36.953924,140.907341
0000003571,"",内郷駅前店,福島県いわき市内郷綴町榎下６５－１１,37.031857,140.859577
0000003572,"",京成大久保店,千葉県習志野市大久保４－１０－１３,35.687429,140.059507
0000003573,"",柳橋店,東京都武蔵野市関前５－８－８,35.710335,139.546658
0000003574,"",熊の前店,東京都荒川区東尾久８－３１－２,35.746335,139.771621
0000003575,"",大井店,東京都品川区大井５－２－１１,35.596926,139.731361
0000003576,"",本宮店,福島県本宮市本宮字中条５２－１,37.511527,140.406225
0000003578,"",矢吹店,西白河郡矢吹町字中町２０２,37.200896,140.328927
0000003579,"",五反田店,東京都品川区東五反田１－２１－１０,35.622641,139.729505
0000003580,"",二俣川店,横浜市旭区二俣川１－４６－１５,35.46309,139.533603
0000003581,"",高砂店,東京都葛飾区細田４－１５－１３,35.741448,139.874297
0000003582,"",花園店,千葉県千葉市花見川区花園１－２０－１６,35.650241,140.078644
0000003583,"",北小岩店,東京都江戸川区北小岩８－２－９,35.74623,139.885127
0000003584,"",五本木店,東京都目黒区五本木２－２６－１２,35.631224,139.690097
0000003585,"",池袋北口平和通り店,東京都豊島区池袋２－７５－８,35.733235,139.714402
0000003586,"",松島店,東京都江戸川区松島４－４３－１５,35.708718,139.862888
0000003587,"",津田沼店,習志野市津田沼６－１３－９,35.676701,140.025155
0000003588,"",中野中央店,東京都中野区中央４－２２－１８,35.697035,139.674205
0000003589,"",神宮前店,渋谷区神宮前４－８－１,35.665026,139.714999
0000003590,"",南篠崎店,東京都江戸川区南篠崎町５－９－１２,35.688901,139.910002
0000003591,"",幕張店,千葉県千葉市花見川区幕張町１ー１３４１,35.659318,140.05023
0000003592,"",与野店,埼玉県さいたま市中央区新中里５－２３－７,35.878096,139.639568
0000003593,"",高田馬場店,東京都新宿区高田馬場４－３３－１,35.705665,139.700903
0000003594,"",針ヶ谷店,埼玉県さいたま市浦和区針ヶ谷１－１１－４,35.876299,139.647208
0000003595,"",善光寺下店,長野県長野市三輪７－７－１,36.655701,138.196116
0000003596,"",谷口店,神奈川県相模原市南区上鶴間本町１－３７－３０,35.533163,139.44293
0000003597,"",本郷店,東京都文京区本郷３－２３－１,35.702329,139.76758
0000003598,"",東陽店,東京都江東区東陽３－２１－６,35.665929,139.815
0000003599,"",希望ケ丘店,福島県郡山市希望ヶ丘５－２,37.406241,140.342678
0000003600,"",南越谷店,越谷市南越谷３ー２５ー１,35.876513,139.789536
0000003601,"",森下店,東京都江東区森下３－１－１１,35.682162,139.803913
0000003602,"",梅田店,東京都足立区梅田７－１６－３,35.765832,139.801936
0000003605,"",豊洲店,江東区豊洲４－６－１,35.652149,139.801477
0000003606,"",相生店,神奈川県相模原市中央区相生４－１－１５,35.561926,139.386408
0000003607,"",中野一丁目店,東京都中野区中野１－３２－６,35.699024,139.677991
0000003609,"",川崎藤崎店,神奈川県川崎市川崎区藤崎１－１２－９,35.526518,139.724041
0000003610,"",逗子桜山３丁目店,神奈川県逗子市桜山３－４－２７,35.293974,139.597891
0000003611,"",足立島根店,東京都足立区島根４－２１－２４,35.779446,139.800744
0000003612,"",日立若葉町店,茨城県日立市若葉町３丁目１２ー１０,36.597437,140.661077
0000003613,"",ひたちなか柳沢店,茨城県ひたちなか市柳沢４６０ー５,36.355958,140.572216
0000003614,"",板橋赤塚新町店,東京都板橋区赤塚新町１－２５－８,35.767283,139.646846
0000003615,"",松戸小山店,千葉県松戸市小山４９５－１,35.770654,139.895778
0000003616,"",福岡中間店,福岡県中間市東中間３丁目２－７,33.817167,130.723599
0000003617,"",逗子駅前店,逗子市逗子３－２－３,35.292499,139.586663
0000003618,"",山中湖旭ケ丘店,山梨県南都留郡山中湖村平野５０６－２９６,35.403818,138.877158
0000003619,"",つくば松見公園店,茨城県つくば市天久保１－１０－２５,36.09079,140.110347
0000003621,"",新大塚駅前店,東京都豊島区南大塚２－１１－４,35.72206,139.734169
0000003623,"",本庄南口店,埼玉県本庄市駅南１ー２ー１９,36.232451,139.190882
0000003624,"",小田原栢山駅前店,神奈川県小田原市栢山２６４８,35.30726,139.14625
0000003625,"",岩見沢５条店,北海道岩見沢市５条東１１丁目２番地２,43.205806,141.780293
0000003626,"",吾妻東村店,群馬県吾妻郡東吾妻町大字新巻６２８,36.557362,138.893819
0000003627,"",浦和栄和店,埼玉県さいたま市桜区栄和４－２２－２,35.865154,139.619877
0000003628,"",長野不動寺店,長野県長野市小島田町２１３３ー１,36.597535,138.196908
0000003629,"",厚沢部町店,北海道檜山郡厚沢部町本町４５ー１,41.91168,140.231204
0000003631,"",山ノ内佐野店,長野県下高井郡山ノ内町佐野境３８３ー１,36.737774,138.409727
0000003632,"",練馬駅北口店,東京都練馬区練馬１－１９－２,35.735029,139.658099
0000003633,"",仙台八木山南店,仙台市太白区八木山南２ー１ー２,38.23204,140.840674
0000003634,"",きよしケ丘店,千葉県松戸市小金きよしヶ丘２－７－１６,35.827683,139.937554
0000003635,"",下井草店,東京都杉並区下井草３－３８－１１,35.720466,139.626797
0000003636,"",旭川神居４条店,北海道旭川市神居４条１１丁目５番１４号,43.755525,142.337077
0000003637,"",平井６丁目店,東京都江戸川区平井６－２３－２１,35.704721,139.844302
0000003638,"",弥彦大鳥居店,新潟県西蒲原郡弥彦村矢作７３４６－２,37.687024,138.859991
0000003639,"",川口東本郷店,埼玉県川口市東本郷９０８－１,35.823794,139.768902
0000003640,"",桐生広沢７丁目店,群馬県桐生市広沢町７丁目５１６９ー１,36.363563,139.366669
0000003641,"",尼崎若王寺店,兵庫県尼崎市若王寺３丁目１４番１８号,34.742354,135.444119
0000003642,"",上士幌町店,北海道河東郡上士幌町字上士幌東３－２３３,43.225883,143.297474
0000003643,"",稲城市平尾店,東京都稲城市平尾２ー８ー３,35.606423,139.49931
0000003644,"",川崎小田店,川崎市川崎区小田５ー２７ー１２,35.507099,139.706399
0000003645,"",裾野金沢店,静岡県裾野市金沢１３１ー１９,35.218301,138.903183
0000003646,"",桐生新宿店,群馬県桐生市新宿２丁目３－１３,36.395627,139.344713
0000003647,"",九十九里粟生店,山武郡九十九里町粟生２３５９－１５,35.514274,140.444672
0000003648,"",戸畑天籟寺店,北九州市戸畑区正津町３－７,33.88747,130.833243
0000003649,"",宇都宮小幡店,栃木県宇都宮市小幡２－６－１３,36.559629,139.876133
0000003650,"",小名浜松の中店,福島県いわき市小名浜字松之中５３番地,36.946908,140.894791
0000003651,"",市川曾谷店,千葉県市川市曽谷６－２６－１５,35.740999,139.930024
0000003652,"",袖ケ浦奈良輪店,千葉県袖ケ浦市奈良輪１－６－１６,35.426355,139.959816
0000003653,"",習志野東店,千葉県習志野市東習志野８－４－１５,35.699226,140.082114
0000003654,"",板橋大山店,東京都板橋区大山金井町５４－１４,35.742315,139.705135
0000003655,"",桐生東仲通り店,群馬県桐生市仲町１－５－１８,36.411548,139.348838
0000003656,"",群馬高山中山店,群馬県吾妻郡高山村中山５０９ー２,36.625748,138.964302
0000003657,"",向ヶ丘遊園店,神奈川県川崎市多摩区宿河原２－４４－３０,35.609254,139.574624
0000003658,"",柏花野井店,千葉県柏市花野井７１２－８５,35.890874,139.965778
0000003659,"",御殿場インター店,静岡県御殿場市新橋７６６－５,35.293579,138.945799
0000003660,"",南葛西４丁目店,江戸川区南葛西４－１１,35.648635,139.875902
0000003661,"",館林栄町店,群馬県館林市栄町２１－１５,36.243754,139.524249
0000003662,"",矢本五味倉店,宮城県東松島市大曲字前畑６６－９,38.432007,141.226252
0000003664,"",静内末広店,北海道日高郡新ひだか町静内末広町１－１－７,42.339992,142.363157
0000003665,"",茨城三和南店,茨城県古河市谷貝６９３－２,36.15124,139.814574
0000003666,"",東仙台１丁目店,宮城県仙台市宮城野区東仙台１－１－２７,38.276502,140.923449
0000003667,"",静内神森店,北海道日高郡新ひだか町静内神森４－５,42.350119,142.384505
0000003668,"",川崎中幸町店,神奈川県川崎市幸区中幸町４－１２－３,35.531752,139.696244
0000003669,"",平塚虹ケ浜店,神奈川県平塚市虹ケ浜１－１,35.314087,139.347138
0000003670,"",小樽桜町店,北海道小樽市桜５丁目６番６号,43.168747,141.036338
0000003671,"",川崎宮前店,神奈川県川崎市宮前区宮崎６－８－６,35.587374,139.584572
0000003672,"",枚方山之上２丁目店,大阪府枚方市山之上２ー１６ー１１,34.79692,135.659391
0000003673,"",太宰府三条店,福岡県太宰府市宰府３－８－２１,33.519362,130.536221
0000003674,"",川口東領家店,埼玉県川口市東領家１－２２－２,35.79636,139.753544
0000003675,"",板橋蓮根駅前店,東京都板橋区蓮根２－３１－２６,35.781885,139.682483
0000003677,"",川崎千年新町店,神奈川県川崎市高津区千年新町２８－２,35.579324,139.631516
0000003678,"",小平創価高校前店,東京都小平市小川町１丁目８９１－３,35.721345,139.457293
0000003679,"",市川宝店,千葉県市川市宝２－１０－１４,35.67729,139.925346
0000003680,"",倉敷児島通生店,岡山県倉敷市児島通生１０５７ー４,34.459151,133.779807
0000003681,"",栃木岩舟町店,栃木県栃木市岩舟町静１４８１,36.309404,139.657586
0000003682,"",栃木市泉町店,栃木県栃木市平柳町１ー２ー２６,36.383459,139.743252
0000003683,"",音更共栄台店,北海道河東郡音更町共栄台西１３丁目２７１番地,42.958955,143.201244
0000003684,"",藤岡緑町店,群馬県藤岡市藤岡１２３９－１,36.243868,139.071821
0000003685,"",旭川川端店,北海道旭川市川端町３条７丁目,43.780624,142.352366
0000003686,"",足立西新井本町店,東京都足立区西新井本町１－１４－１４,35.773916,139.784949
0000003687,"",川崎新城店,神奈川県川崎市中原区新城１０２２－１,35.584349,139.630844
0000003688,"",会津亀賀店,会津若松市一箕町大字亀賀字郷之原１７６,37.516298,139.946194
0000003689,"",八千代緑が丘駅前店,八千代市緑が丘１ー４ー１,35.726015,140.078177
0000003690,"",市原光風台店,千葉県市原市光風台２－２３６,35.444629,140.110972
0000003691,"",北恵庭店,北海道恵庭市北柏木町３丁目７５,42.899343,141.560991
0000003692,"",川崎平店,神奈川県川崎市宮前区平１－７－３５,35.59731,139.58076
0000003693,"",釧路星が浦大通５丁目店,北海道釧路市星が浦大通５丁目４－１４,43.009889,144.304958
0000003694,"",南麻布店,東京都港区南麻布２－８－１０,35.645398,139.73971
0000003695,"",府中天神町店,東京都府中市府中町３－１０－８,35.673643,139.488716
0000003696,"",飯田殿岡店,長野県飯田市上殿岡４３０－６,35.494704,137.808941
0000003697,"",栗橋伊坂店,埼玉県久喜市栗橋中央１丁目２－２２,36.134924,139.699149
0000003698,"",岩井長谷店,茨城県坂東市長谷１７７５－１,36.028071,139.87963
0000003699,"",福岡城南店,福岡県福岡市城南区別府３丁目２－３,33.570969,130.371837
0000003701,"",春日部緑町店,埼玉県春日部市緑町６－１０－９,35.963893,139.772521
0000003703,"",羽生東店,埼玉県羽生市東７－４－７,36.167962,139.550446
0000003704,"",足利五十部店,栃木県足利市五十部町４１０,36.339093,139.427377
0000003705,"",札幌清田６条店,北海道札幌市清田区清田６条２丁目１０－８,42.991747,141.434641
0000003707,"",板橋西台駅前店,東京都板橋区高島平１－８０－５,35.783601,139.676364
0000003708,"",二本松駅前店,福島県二本松市本町２丁目２３３－７,37.586721,140.438047
0000003709,"",裾野石脇店,静岡県裾野市石脇１５２－１,35.184935,138.911244
0000003710,"",八王子館町店,東京都八王子市館町２４９－１,35.632082,139.304188
0000003711,"",札幌北３１条店,北海道札幌市北区北３１条西６丁目３－２５,43.095649,141.342929
0000003712,"",旭川春光１条店,北海道旭川市春光１条９丁目１６番８号,43.799352,142.385174
0000003713,"",倉敷連島鶴新田店,岡山県倉敷市連島町鶴新田３９２ー２,34.537184,133.713213
0000003714,"",中野６丁目店,東京都中野区中野６－１４－６,35.705119,139.679133
0000003715,"",小田原久野店,神奈川県小田原市久野１８６,35.26536,139.157033
0000003717,"",広島宮島口店,広島県廿日市市宮島口１－１２－３,34.308423,132.306543
0000003718,"",栃木箱森店,栃木県栃木市箱森町１４ー２８,36.38571,139.723158
0000003719,"",横浜大倉山店,神奈川県横浜市港北区大倉山１丁目３０番３号,35.517394,139.636169
0000003720,"",福岡遠賀店,福岡県遠賀郡遠賀町松の本２－１９－１,33.851278,130.671334
0000003722,"",宇都宮駅東口店,栃木県宇都宮市東宿郷１丁目５－１,36.555512,139.905411
0000003723,"",函南平井店,静岡県田方郡函南町平井６００－２,35.087784,138.957963
0000003724,"",平井２丁目店,東京都江戸川区平井２－２２－１２,35.699651,139.850594
0000003725,"",千葉宮崎１丁目店,千葉県千葉市中央区宮崎１ー１８ー３８,35.581543,140.137554
0000003727,"",帯広啓北店,北海道帯広市西１２条北７ー７ー１２,42.937736,143.187335
0000003728,"",釧路昭和南店,北海道釧路市昭和南４丁目１－１１,43.016764,144.359674
0000003729,"",会津千石店,福島県会津若松市花畑東３－４１,37.495066,139.946135
0000003730,"",妙蓮寺駅前店,神奈川県横浜市港北区仲手原２－４５－１７,35.494568,139.636378
0000003731,"",横浜西戸部店,神奈川県横浜市西区西戸部町１－１０３,35.444563,139.623904
0000003732,"",仙台河原町店,宮城県仙台市若林区河原町２ー１ー３,38.23681,140.895271
0000003734,"",高崎箕郷上芝店,群馬県高崎市箕郷町上芝１６７－１,36.385888,138.966024
0000003737,"",札幌本郷店,北海道札幌市白石区本郷通１２丁目南２－１３,43.035196,141.425454
0000003738,"",東川口店,川口市戸塚東１ー１ー２７,35.872071,139.751258
0000003739,"",小樽信香店,北海道小樽市信香町２－１,43.183528,141.016604
0000003740,"",行橋西宮市店,福岡県行橋市西宮市２ー２０ー１２,33.724556,130.969493
0000003741,"",上池袋２丁目店,東京都豊島区上池袋２ー１５ー１,35.732179,139.721735
0000003742,"",甲斐双葉宇津谷店,山梨県甲斐市宇津谷８５５,35.687585,138.481304
0000003743,"",日野高幡橋南店,東京都日野市南平４－３－２,35.659521,139.408805
0000003744,"",川崎子母口店,神奈川県川崎市高津区子母口３９３－５,35.571346,139.63183
0000003745,"",晴見町店,東京都府中市晴見町１－７－４,35.676171,139.48273
0000003746,"",倉敷美和１丁目店,岡山県倉敷市美和１ー８ー１１,34.597726,133.779577
0000003748,"",横浜片倉町店,横浜市神奈川区片倉１ー５ー６,35.479468,139.605369
0000003749,"",天城湯ケ島船原店,静岡県伊豆市上船原３１６,34.915526,138.910379
0000003750,"",横浜妙蓮寺店,神奈川県横浜市港北区仲手原２－２２,35.492696,139.635633
0000003751,"",北２７条店,北海道札幌市北区北２７条西１６－３－１５,43.093939,141.327518
0000003752,"",旭川神居７条店,北海道旭川市神居７条１,43.765705,142.326548
0000003753,"",阪神青木駅前店,兵庫県神戸市東灘区青木６ー１ー１７,34.713023,135.285027
0000003754,"",広島若草町店,広島県広島市東区若草町１８－４６,34.393665,132.483293
0000003755,"",豊前三毛門店,福岡県豊前市大字三毛門４０５,33.606747,131.162246
0000003756,"",北郷郷之原店,宮崎県日南市北郷町郷之原乙２０５４－１,31.671898,131.376271
0000003757,"",宇都宮池上店,栃木県宇都宮市泉町１番２０号,36.558779,139.884099
0000003758,"",足寄下愛冠店,北海道足寄郡足寄町下愛冠１丁目５－２,43.258111,143.547366
0000003759,"",東金北之幸谷店,千葉県東金市北之幸谷１０－２,35.554613,140.378728
0000003760,"",館山駅前店,千葉県館山市北条字浜通１８３４ー１１,34.991305,139.865433
0000003761,"",等々力駅前店,東京都世田谷区等々力３ー２２ー９,35.608065,139.651046
0000003762,"",篠の井バイパス店,長野県長野市合戦場２丁目１１３番地,36.57651,138.162955
0000003763,"",釧路星ケ浦大通２丁目店,北海道釧路市星ケ浦大通２ー５ー１５,43.011236,144.323908
0000003764,"",大阪南堀江４丁目店,大阪府大阪市西区南堀江４ー３ー１８,34.668537,135.488563
0000003765,"",江戸川二枚橋店,東京都江戸川区南小岩４－９－７,35.719374,139.884464
0000003766,"",横浜鉄町店,神奈川県横浜市青葉区鉄町１０４１,35.556868,139.532588
0000003767,"",荻窪駅前店,東京都杉並区荻窪５－１６－７,35.700732,139.620364
0000003768,"",渋川金井店,群馬県渋川市金井１２２９ー１,36.501724,138.998197
0000003769,"",下丸子駅前店,東京都大田区下丸子３ー８ー１１,35.567585,139.688783
0000003770,"",茨城石下店,茨城県常総市新石下４０２５－２,36.106549,139.980961
0000003772,"",郡山喜久田店,郡山市喜久田町堀之内字千杯田１６の４,37.44759,140.341052
0000003773,"",浦和南部領店,埼玉県さいたま市緑区大字南部領辻３１７５番１,35.891507,139.716024
0000003774,"",結城江川店,茨城県結城市江川新宿１９５９ー１５,36.240413,139.834233
0000003776,"",川崎溝口２丁目店,神奈川県川崎市高津区溝口２－１９－１７,35.601016,139.612583
0000003778,"",豊中螢池中町店,大阪府豊中市螢池中町１丁目３番２５号,34.789356,135.452849
0000003779,"",入間東毛呂店,埼玉県入間郡毛呂山町前久保南３－３－２,35.943799,139.32703
0000003781,"",鎌倉小袋谷店,神奈川県鎌倉市大船３－３－５,35.345876,139.53558
0000003782,"",市川大野店,市川市南大野１ー４４ー５,35.73716,139.956021
0000003783,"",川口新井宿店,埼玉県川口市西新井宿３６３,35.842307,139.738885
0000003784,"",新田綿打店,群馬県太田市新田大町６８８,36.319069,139.283686
0000003785,"",調布インター南店,東京都調布市上石原１－３０－９,35.655443,139.534471
0000003787,"",高萩秋山店,茨城県高萩市秋山２７９,36.718974,140.681119
0000003788,"",川崎宮崎２丁目店,神奈川県川崎市宮前区宮崎２丁目１３－４,35.58346,139.597925
0000003791,"",横浜南太田店,神奈川県横浜市南区庚台２１,35.435629,139.618572
0000003793,"",千葉真砂店,千葉県千葉市美浜区真砂１－４－２７,35.633332,140.072019
0000003794,"",練馬桜台５丁目店,東京都練馬区桜台５－１９－６,35.739643,139.659499
0000003795,"",白糠庶路店,北海道白糠郡白糠町庶路２丁目６番地１２,42.980244,144.152658
0000003796,"",札幌北６条店,北海道札幌市中央区北６条西２２丁目２番７号,43.062452,141.325518
0000003797,"",邑楽篠塚店,群馬県邑楽郡邑楽町大字篠塚１６２０－１,36.243809,139.457958
0000003799,"",勝浦武道大学前店,千葉県勝浦市新官９３４－２３,35.155221,140.319164
0000003800,"",茅ケ崎円蔵店,神奈川県茅ヶ崎市円蔵２０９４－１,35.342482,139.401019
0000003801,"",裾野茶畑店,裾野市茶畑３０ー１,35.162735,138.916366
0000003802,"",和光新倉店,埼玉県和光市新倉１－８－５９,35.788913,139.611102
0000003803,"",二子玉川駅前店,東京都世田谷区玉川３－６－５,35.609276,139.629169
0000003804,"",鎌倉稲村が崎店,神奈川県鎌倉市稲村ケ崎２－６－１８,35.300385,139.524939
0000003805,"",迫佐沼北方店,宮城県登米市迫町佐沼字新大瀬１４４,38.705521,141.183041
0000003806,"",福島平田店,福島県石川郡平田村上蓬田字新屋敷１４,37.236796,140.572791
0000003807,"",海老名駅前店,神奈川県海老名市中央１ー１５ー１,35.451996,139.397741
0000003810,"",横浜三吉橋店,横浜市南区中村町３－１９９－２,35.430304,139.633619
0000003812,"",富士市横割店,静岡県富士市横割２丁目１－１,35.14552,138.658913
0000003813,"",西那須野西原店,栃木県那須塩原市西原町８－２２,36.886271,139.97828
0000003814,"",八潮中央店,八潮市西袋１３４７,35.815138,139.829661
0000003815,"",博多宮島店,福岡県福岡市博多区博多駅南２丁目１８－４,33.577725,130.42454
0000003816,"",品川荏原店,東京都品川区荏原１ー２１ー６,35.615256,139.718088
0000003817,"",当別栄町店,北海道石狩郡当別町栄町４４－１５６,43.207436,141.522043
0000003818,"",杉並大宮店,東京都杉並区堀ノ内１－１４－２,35.679738,139.650669
0000003819,"",九十九里下貝塚店,千葉県山武郡九十九里町下貝塚１０１ー１,35.516816,140.421041
0000003820,"",矢吹インター店,福島県西白河郡泉崎村踏瀬北ノ内６ー８,37.182965,140.295071
0000003821,"",鹿嶋三笠店,鹿嶋市平井字アラク北１１８４ー４０,35.966229,140.649872
0000003822,"",新宿若松町店,東京都新宿区若松町３１－８,35.696801,139.722855
0000003823,"",榛東広馬場店,群馬県北群馬郡榛東村広馬場１６４０ー２,36.418568,138.972613
0000003825,"",ひたちなか高野店,茨城県ひたちなか市高野７４ー１,36.419121,140.558089
0000003826,"",野栄野手浜店,千葉県匝瑳市野手１７１４６－１３１９,35.651371,140.593761
0000003827,"",群馬吉井町店,群馬県高崎市吉井町池１８－５,36.257843,138.993568
0000003828,"",帯広大正町店,北海道帯広市昭和町基線１０５ー１３,42.787111,143.165841
0000003829,"",横浜寺前店,神奈川県横浜市金沢区寺前１－１８－２３,35.337546,139.632069
0000003830,"",市川行徳店,千葉県市川市福栄１－１０,35.672702,139.913321
0000003831,"",若松小石店,福岡県北九州市若松区赤崎町２－３７,33.915495,130.790785
0000003832,"",川崎東有馬店,川崎市宮前区東有馬５ー２３ー２０,35.568065,139.597596
0000003833,"",内原鯉渕店,茨城県水戸市鯉淵町５９８６－１６,36.334793,140.358291
0000003834,"",府中北山店,東京都府中市北山町３－２３－１,35.685146,139.458749
0000003835,"",新宿東店,新宿区大久保１ー１ー７,35.695037,139.70955
0000003836,"",船橋夏見台店,千葉県船橋市夏見台１ー１８ー３,35.715232,139.99303
0000003837,"",水戸河和田店,茨城県水戸市河和田２丁目２２３０番地,36.373154,140.405972
0000003838,"",上総一宮店,千葉県長生郡一宮町一宮３１１４,35.374351,140.364844
0000003839,"",宮城築館店,宮城県栗原市築館伊豆１丁目９－３２,38.730999,141.02623
0000003840,"",茨城茎崎店,茨城県つくば市高見原１－５－１０２,35.985891,140.139035
0000003841,"",千葉神明町店,千葉県千葉市中央区神明町２０６－３,35.600732,140.118405
0000003842,"",上州新田店,群馬県太田市新田小金井町１３８０－７,36.322366,139.325682
0000003843,"",中野江古田店,東京都中野区江古田４－７－３,35.721127,139.666044
0000003844,"",千歳北栄店,北海道千歳市北栄２丁目６１９番地,42.83138,141.647074
0000003845,"",世田谷松原店,東京都世田谷区松原２－３５－１２,35.664635,139.648928
0000003846,"",京都修学院駅前店,京都府京都市左京区山端壱町田町８ー８０,35.047088,135.793607
0000003848,"",仙台八木山神社店,宮城県仙台市太白区八木山香澄町３－２８,38.241386,140.865272
0000003849,"",山梨一宮中央店,山梨県笛吹市一宮町末木３５９,35.640729,138.694666
0000003850,"",成田本三里塚店,千葉県成田市本三里塚５０ー６,35.753084,140.372269
0000003851,"",千歳青葉店,千歳市青葉７ー７ー２５,42.821764,141.668924
0000003852,"",岩国錦見店,山口県岩国市錦見４丁目１－８,34.161912,132.189612
0000003853,"",桐生川内店,群馬県桐生市川内町１丁目２－１４,36.418793,139.315622
0000003854,"",二葉町店,東京都品川区二葉町１ー１０ー８,35.604599,139.73226
0000003856,"",中野鷺宮店,東京都中野区鷺宮４－３５－１０,35.72159,139.641283
0000003857,"",羽生西店,埼玉県羽生市西５－１６－１２,36.171193,139.531205
0000003859,"",桐生梅田１丁目店,群馬県桐生市梅田町１－１９９－２,36.433019,139.361177
0000003860,"",福岡春日原駅前店,福岡県春日市春日原北町３丁目６８番地,33.532964,130.475434
0000003861,"",仙台折立店,宮城県仙台市青葉区折立３ー２ー１２,38.263941,140.809677
0000003862,"",宮城三本木店,宮城県大崎市三本木新町１丁目２－２２,38.517243,140.937277
0000003863,"",西穂高店,長野県安曇野市穂高８１４８－１,36.327626,137.866952
0000003864,"",鳩ケ谷里店,埼玉県川口市里１２３５,35.829207,139.737564
0000003865,"",函館港町２丁目店,北海道函館市港町２丁目８－６,41.806116,140.725424
0000003866,"",十勝池田利別店,北海道中川郡池田町利別西町５ー２,42.928035,143.432791
0000003867,"",京都烏丸六条店,京都府京都市下京区烏丸通北町１８２,34.990821,135.762343
0000003869,"",桐生境野店,群馬県桐生市境野町７－１８００－５,36.374838,139.366868
0000003870,"",大田区大森町店,東京都大田区大森西５－６－７,35.568874,139.732294
0000003871,"",浦安当代島店,千葉県浦安市当代島３ー４ー１,35.667654,139.897733
0000003872,"",中野新橋店,中野区本町３ー１１ー５,35.690446,139.677749
0000003873,"",伊那みすず店,長野県伊那市日影７１ー１,35.834832,137.987236
0000003874,"",茨城沓掛店,茨城県坂東市沓掛４１３３番地１,36.095144,139.901649
0000003875,"",小平鷹の台店,東京都小平市たかの台３１－１５,35.720496,139.46406
0000003876,"",日立日高店,茨城県日立市日高町２－１－９,36.636879,140.678964
0000003877,"",西大井店,東京都品川区西大井６－５－１,35.598137,139.721844
0000003880,"",沼田インター店,群馬県沼田市上原町１７２６ー２４,36.649601,139.070719
0000003881,"",藤沢大庭店,藤沢市大庭５１３３ー４,35.356506,139.451652
0000003882,"",下伊那松川店,長野県下伊那郡松川町元大島１２５９,35.587787,137.917185
0000003883,"",多賀城桜木店,宮城県多賀城市桜木三丁目３番３６号,38.283655,141.016591
0000003884,"",上越五智国府店,新潟県上越市国府３丁目１７－４５,37.156435,138.229261
0000003885,"",千葉北小仲台店,千葉県千葉市稲毛区小仲台８－１８－１,35.642415,140.091716
0000003886,"",大田区上池台店,東京都大田区上池台１－４４－１,35.598199,139.703041
0000003887,"",太田市内ケ島店,群馬県太田市内ヶ島町１４９８－３,36.287868,139.398143
0000003888,"",横浜六ツ川店,神奈川県横浜市南区六ツ川１－４４８－５,35.420052,139.591505
0000003889,"",新宿６丁目店,東京都新宿区新宿６－９－１,35.690337,139.711822
0000003890,"",福島福商前店,福島県福島市丸子字富塚７ー７,37.78198,140.475302
0000003891,"",恵庭駅前店,北海道恵庭市相生町１丁目６番２０号,42.878799,141.587871
0000003892,"",仙台上飯田店,宮城県仙台市若林区上飯田１丁目２５－３６,38.216157,140.923
0000003893,"",埼玉岡部町店,埼玉県深谷市岡１丁目１７番地６,36.211276,139.243455
0000003895,"",阿佐谷北５丁目店,東京都杉並区阿佐谷北５ー４２ー１１,35.70931,139.6429
0000003896,"",福岡東七隈店,福岡県福岡市城南区七隈８ー１ー２,33.548437,130.369314
0000003897,"",中野沼袋駅前店,東京都中野区沼袋３ー４ー１９,35.715868,139.666641
0000003898,"",下関王喜店,山口県下関市王喜本町３丁目１７－７,34.060784,131.055035
0000003899,"",相模原石宮店,神奈川県相模原市緑区橋本台２－１０－７,35.580859,139.342541
0000003900,"",高崎貝沢町店,群馬県高崎市貝沢町７４８－１,36.341221,139.02208
0000003901,"",山梨山中湖平野店,山梨県南都留郡山中湖村平野７５,35.422682,138.907291
0000003902,"",大和島津店,神奈川県大和市深見東２ー１ー９,35.477049,139.468108
0000003903,"",尼崎杭瀬南新町店,兵庫県尼崎市杭瀬南新町４－７－２０,34.716078,135.432282
0000003904,"",帯広北１線店,北海道帯広市西１７条北２丁目１０－１２,42.93195,143.168157
0000003905,"",郡山インター店,福島県郡山市喜久田町松ケ作１６ー１８０,37.438065,140.340207
0000003906,"",西宮香櫨園店,兵庫県西宮市川添町３ー４,34.726687,135.334377
0000003907,"",品川天王洲店,東京都品川区東品川２－２－２７,35.618374,139.752299
0000003908,"",加茂田上町店,新潟県南蒲原郡田上町吉田新田甲２３,37.67081,139.059463
0000003910,"",阿寒町店,北海道釧路市阿寒町中央４丁目１番,43.110747,144.128855
0000003912,"",大越町店,福島県田村市大越町下大越字上田６５,37.395427,140.62513
0000003913,"",太田市韮川店,群馬県太田市台之郷町８１２－７,36.297774,139.412041
0000003914,"",品川東大井店,東京都品川区東大井３－１１－２１,35.600601,139.740303
0000003915,"",ムサシ小金井北口店,小金井市本町３ー８ー６,35.702671,139.511338
0000003916,"",川越サンロード店,埼玉県川越市脇田町４－３,35.906065,139.485849
0000003917,"",君津中野店,千葉県君津市中野２ー１ー１,35.327079,139.896238
0000003918,"",渋谷代々木公園店,東京都渋谷区富ヶ谷１丁目１９－４,35.662704,139.695291
0000003919,"",呉郷原町店,広島県呉市郷原町７２２６ー１,34.300065,132.648887
0000003920,"",川崎出来野店,川崎市川崎区出来野１１ー２５,35.529821,139.743802
0000003921,"",福島矢吹北町店,福島県西白河郡矢吹町北町１９０－２,37.209804,140.329152
0000003922,"",相模原大沢店,神奈川県相模原市緑区上九沢２７２－５,35.575171,139.332524
0000003923,"",茨城神栖日川店,茨城県神栖市日川４４１３,35.85588,140.704033
0000003924,"",日野新井店,日野市高幡４３３,35.660218,139.419527
0000003925,"",博多奈良屋店,福岡県福岡市博多区古門戸町４ー２４,33.594648,130.407218
0000003926,"",草加駅前西口店,埼玉県草加市氷川町２１２１－５,35.82471,139.806349
0000003928,"",高崎里見店,群馬県高崎市下里見町１４７３－１,36.358579,138.918769
0000003930,"",美野里西郷地店,茨城県小美玉市西郷地１３９０－１０,36.252415,140.383694
0000003931,"",新茂原店,茂原市小林２８８８ー２,35.444341,140.29963
0000003933,"",藤沢辻堂熊の森店,神奈川県藤沢市辻堂元町１ー３ー２３,35.331296,139.453447
0000003934,"",佐倉大崎台店,千葉県佐倉市大崎台１－２－７,35.705457,140.228519
0000003935,"",太田市運動公園西店,群馬県太田市飯塚町１０８０ー１,36.270826,139.395203
0000003936,"",戸田新曽南店,埼玉県戸田市新曽南２ー１ー１８,35.808307,139.670521
0000003937,"",みなかみ後閑店,群馬県利根郡みなかみ町後閑３１６－１,36.676357,139.002452
0000003939,"",仁木北町店,余市郡仁木町北町３ー１１,43.155072,140.771824
0000003940,"",伊勢崎波志江町店,群馬県伊勢崎市波志江町１８６７－１,36.338932,139.189641
0000003941,"",横浜鶴見大東店,神奈川県横浜市鶴見区大東町２－３,35.499701,139.697483
0000003942,"",横浜長者町店,神奈川県横浜市中区長者町３－８－８,35.436621,139.637649
0000003943,"",町田市木曽町店,東京都町田市木曽東４丁目２ー２,35.559168,139.431136
0000003945,"",大和南林間７丁目店,神奈川県大和市南林間７丁目２５－１１,35.487726,139.438791
0000003946,"",三島伏見店,静岡県駿東郡清水町伏見７９５,35.112265,138.904136
0000003947,"",三鷹駅南通り店,東京都三鷹市下連雀４－１７－３－１０１,35.691165,139.56428
0000003948,"",博多駅東店,福岡県福岡市博多区博多駅東１－１－３３,33.589062,130.423956
0000003949,"",足立西保木間３丁目店,東京都足立区竹の塚７－２１－１７,35.798307,139.80048
0000003950,"",杉並宮前３丁目店,東京都杉並区宮前３－２３－１３,35.692624,139.614675
0000003951,"",松戸緑ケ丘店,千葉県松戸市緑ケ丘１－１０７,35.783785,139.913047
0000003952,"",北茨城関南町店,茨城県北茨城市関南町神岡下３２１－２,36.82791,140.782207
0000003953,"",函館本通２丁目店,北海道函館市本通２丁目３９ー１５,41.797469,140.774062
0000003954,"",河南広渕店,宮城県石巻市広渕字焼巻３０１番１,38.469168,141.222036
0000003955,"",帯広西２１条店,北海道帯広市西２１条南３丁目２７－６,42.910061,143.143797
0000003956,"",茨城神栖大野原店,茨城県神栖市大野原１－５－１,35.889885,140.657494
0000003957,"",北区豊島６丁目店,東京都北区豊島６ー７ー６,35.760782,139.749224
0000003958,"",福島新地町店,福島県相馬郡新地町谷地小屋字萩崎１,37.872279,140.921549
0000003959,"",聖蹟桜ケ丘駅前店,東京都多摩市関戸１ー１１ー３,35.647171,139.451116
0000003960,"",広島江波南３丁目店,広島県広島市中区江波南３ー２ー４,34.360889,132.434265
0000003961,"",横浜栄小菅ケ谷店,神奈川県横浜市栄区小菅ケ谷２－２８－１３,35.361266,139.543952
0000003962,"",古川バイパス店,宮城県大崎市古川若葉町２丁目１－３０,38.586363,140.957202
0000003963,"",福岡苅田小波瀬店,京都郡苅田町大字与原字折口３２４ー７,33.747912,130.982754
0000003964,"",横浜根岸３丁目店,神奈川県横浜市中区根岸町３－１７５,35.414832,139.642633
0000003965,"",江戸川鹿骨店,東京都江戸川区西篠崎１－２－４,35.710704,139.896549
0000003966,"",代々木上原駅前店,東京都渋谷区西原３ー７ー３,35.666804,139.684322
0000003967,"",鎌倉深沢店,神奈川県鎌倉市梶原１ー５ー２１,35.329256,139.522028
0000003968,"",仙台台原駅前店,宮城県仙台市青葉区台原３ー２９ー５０,38.284263,140.881038
0000003969,"",栃木蔵の街店,栃木市祝町４ー２８,36.375729,139.729199
0000003970,"",富良野若松店,北海道富良野市若松町１２ー５,43.340484,142.389141
0000003971,"",市原青柳店,千葉県市原市千種７－１９－１,35.495613,140.059246
0000003973,"",品川小山台店,東京都品川区小山台１ー２３ー６,35.618374,139.70883
0000003974,"",山口阿知須店,山口県山口市阿知須４８３８－５,34.00797,131.356909
0000003975,"",板橋熊野町店,東京都板橋区熊野町３４－１０,35.739757,139.708254
0000003976,"",涌谷赤間屋敷店,宮城県遠田郡涌谷町赤間屋敷１７１ー１,38.547718,141.098372
0000003977,"",多摩蓮光寺店,東京都多摩市馬引沢２ー１２ー７,35.62771,139.457755
0000003978,"",宮城大河原バイパス店,宮城県柴田郡大河原町字新南５９ー２１,38.050707,140.735355
0000003979,"",信州望月店,長野県佐久市協和１１６－１,36.259051,138.359265
0000003980,"",伊勢原西富岡店,神奈川県伊勢原市西富岡１６ー２,35.41059,139.306088
0000003981,"",駿河南一色店,駿東郡長泉町南一色４１７ー１,35.149662,138.897857
0000003982,"",相模原橋本駅東店,神奈川県相模原市緑区東橋本１－２４－１５,35.590795,139.352991
0000003984,"",広島八千代南店,広島県安芸高田市八千代町下根２６７２,34.604737,132.601023
0000003986,"",広島千代田インター店,広島県山県郡北広島町有田６６２,34.67257,132.542473
0000003987,"",博多築港店,福岡県福岡市博多区石城町８番１号,33.601075,130.407718
0000003988,"",和泉尾井町店,大阪府和泉市鶴山台１ー２１ー３,34.506243,135.456349
0000003989,"",福島玉川店,石川郡玉川村大字小高字稲荷畷２７ー１,37.209202,140.410583
0000003990,"",東金武射田店,千葉県東金市上武射田２２２９,35.577615,140.423158
0000003991,"",美野里張星店,茨城県小美玉市張星１７０－１１,36.23791,140.321308
0000003992,"",須賀川インター店,福島県須賀川市牛袋町８－１,37.289688,140.359566
0000003993,"",横浜荏田町店,神奈川県横浜市青葉区荏田町１４１０ー１,35.558426,139.561275
0000003994,"",埼玉吉川南店,埼玉県吉川市中曽根１－１１－１８,35.86206,139.848121
0000003995,"",信州新町店,長野県長野市信州新町新町１６４－１,36.569663,138.017688
0000003996,"",東広島西条中央店,広島県東広島市西条中央７丁目２ー４３,34.416171,132.738968
0000003997,"",沼田上久屋店,群馬県沼田市久屋原町２７０－１,36.659948,139.099452
0000003998,"",富士バイパス店,静岡県富士市五貫島１１５－１,35.131263,138.654135
0000004000,"",喜多方豊川店,喜多方市豊川町高堂太字免田１１８０,37.628793,139.894171
0000004002,"",寄居赤浜店,埼玉県大里郡寄居町赤浜６７３ー１,36.109146,139.249852
0000004003,"",日高高麗本郷店,埼玉県日高市高麗本郷１９１ー５,35.882579,139.313074
0000004004,"",市原犬成店,千葉県市原市犬成１１２４,35.48361,140.190444
0000004005,"",室蘭工大前店,室蘭市水元町２８ー２,42.3744,141.038563
0000004006,"",室蘭宮の森店,北海道室蘭市宮の森町４ー１１ー６,42.352683,141.029696
0000004007,"",茨城八千代菅谷店,茨城県結城郡八千代町菅谷５８９－１９,36.186318,139.891021
0000004008,"",荒川尾竹橋店,東京都荒川区町屋３ー２２ー１,35.745509,139.787481
0000004009,"",渡島七飯大中山店,北海道亀田郡七飯町大中山２－１１－６,41.867852,140.715135
0000004010,"",那須インター店,那須郡那須町高久甲仲町４３２８ー１,37.004837,140.035044
0000004011,"",筑紫野武蔵店,福岡県筑紫野市武蔵４丁目５－１５,33.483762,130.517606
0000004012,"",下越横越店,新潟県新潟市江南区横越中央７丁目１－１,37.851063,139.149082
0000004013,"",札幌篠路２条店,北海道札幌市北区篠路２条８ー４ー１５,43.139783,141.369671
0000004014,"",秦野戸川店,神奈川県秦野市戸川３６５－１,35.386685,139.18963
0000004015,"",鹿嶋宮中店,茨城県鹿嶋市宮中３ー１ー１２,35.961433,140.630019
0000004016,"",台東日本堤店,東京都台東区日本堤２ー１７ー３,35.723729,139.798716
0000004017,"",相模原矢部駅北口店,神奈川県相模原市中央区淵野辺１－２－３１,35.569616,139.391291
0000004018,"",富士川松野店,静岡県富士市北松野１３２５－１,35.183907,138.592475
0000004020,"",世田谷１丁目店,東京都世田谷区世田谷１ー１０ー１８,35.63896,139.657852
0000004022,"",横浜南太田駅前店,神奈川県横浜市南区南太田１－６－１３,35.433652,139.617947
0000004023,"",熊本沼山津４丁目店,熊本県熊本市東区沼山津４丁目７－１,32.771865,130.786398
0000004024,"",上川美瑛店,北海道上川郡美瑛町北町２丁目６－２０,43.594272,142.466751
0000004026,"",広島河津原店,広島県廿日市市河津原８４８,34.3543,132.214632
0000004028,"",結城矢畑店,茨城県結城市矢畑２８０－５,36.257131,139.877691
0000004029,"",墨田四ツ木橋南店,東京都墨田区東向島５ー３９ー１２,35.725232,139.827885
0000004031,"",黒瀬春日野店,広島県東広島市黒瀬春日野２丁目１７－１,34.330039,132.656824
0000004032,"",幕張５丁目店,千葉県千葉市花見川区幕張町５ー４１７ー２８,35.650948,140.055085
0000004033,"",仙台袋原店,宮城県仙台市太白区東中田四丁目７－６,38.194893,140.906921
0000004034,"",横浜山手駅前店,神奈川県横浜市中区大和町２－３６,35.424577,139.648841
0000004035,"",札幌南９条西３丁目店,北海道札幌市中央区南９条西３丁目１番１号,43.047516,141.359832
0000004036,"",蓮田西新宿１丁目店,埼玉県蓮田市西新宿１－２３,36.000658,139.658505
0000004037,"",西那須野南店,栃木県那須塩原市一区町３１１,36.844279,139.981888
0000004038,"",佐賀嬉野みゆき通り店,佐賀県嬉野市嬉野町大字下宿乙１２５９,33.098784,129.989076
0000004040,"",足立舎人２丁目店,足立区舎人２ー２１ー１０,35.811263,139.774155
0000004041,"",福岡唐原７丁目店,福岡県福岡市東区唐原７丁目５－１７,33.670059,130.450237
0000004042,"",東川北町店,北海道上川郡東川町北町２丁目１番１号,43.696833,142.508938
0000004043,"",広尾並木通店,北海道広尾郡広尾町並木通西２ー４５,42.298528,143.319304
0000004045,"",富津大貫店,千葉県富津市小久保２８７６,35.276918,139.857789
0000004046,"",片品須賀川店,群馬県利根郡片品村須賀川４５ー１,36.746685,139.235724
0000004047,"",みなかみ布施店,群馬県利根郡みなかみ町布施１６０９番地３,36.681232,138.933396
0000004050,"",横浜矢向店,神奈川県横浜市鶴見区矢向５－８－３５,35.534304,139.686941
0000004051,"",茨城鉾田北店,茨城県鉾田市徳宿３１００,36.205429,140.485733
0000004052,"",いわき西郷店,福島県いわき市常磐西郷町大夫５９－１,36.982327,140.857302
0000004053,"",四賀錦部店,長野県松本市刈谷原町９３３－１,36.316001,137.999613
0000004054,"",上富良野栄町店,北海道空知郡上富良野町栄町３ー２ー４,43.461296,142.468241
0000004055,"",市原馬立店,千葉県市原市馬立３４３,35.415985,140.123153
0000004056,"",宮城登米町店,宮城県登米市登米町寺池目子待井２０－７,38.653849,141.278018
0000004057,"",ひたちなか大島公園前店,茨城県ひたちなか市東石川３３９０ー９,36.402615,140.522902
0000004058,"",山武日向店,千葉県山武市椎崎３４２－３,35.630641,140.365311
0000004059,"",熊本松橋東店,熊本県宇城市松橋町松橋中原７９２－４,32.651764,130.683012
0000004060,"",島田大井町店,静岡県島田市大井町６－３,34.830634,138.17588
0000004061,"",世田谷梅ヶ丘駅前店,東京都世田谷区梅丘１ー２２ー６,35.652371,139.656475
0000004062,"",大子池田北店,茨城県久慈郡大子町池田４１,36.790023,140.3702
0000004064,"",幕張本郷駅前店,千葉県千葉市花見川区幕張本郷１ー１３ー２,35.668054,140.044049
0000004065,"",三次秋町店,広島県三次市秋町１１２７ー６,34.73925,132.79847
0000004066,"",信州鞍掛店,長野県東御市鞍掛３８５－１,36.360746,138.358352
0000004067,"",上越新井国賀店,新潟県妙高市栗原２丁目１番３号,37.038268,138.263758
0000004068,"",千葉鎌取駅前店,千葉県千葉市緑区おゆみ野２－４－１０,35.560527,140.179794
0000004069,"",中野都立家政店,東京都中野区若宮３ー１９ー１１,35.718357,139.647619
0000004071,"",熊本安政町店,熊本県熊本市中央区安政町２－２９,32.798353,130.712566
0000004072,"",横浜太尾町店,神奈川県横浜市港北区大倉山５丁目３８－２,35.522962,139.626186
0000004073,"",広島上安店,広島県広島市安佐南区上安３丁目１ー１０,34.472878,132.450215
0000004074,"",塩尻大門店,長野県塩尻市大門１番町１３ー２,36.108982,137.955213
0000004075,"",いわき自由ヶ丘店,福島県いわき市自由ヶ丘３７ー１,37.026311,140.895833
0000004076,"",葛飾立石４丁目店,東京都葛飾区立石４ー３３ー７,35.737874,139.851847
0000004077,"",札幌北３５条店,北海道札幌市北区北３５条西４丁目２－１８,43.100175,141.343957
0000004079,"",浜松向宿店,静岡県浜松市中央区向宿３丁目２－１５,34.697832,137.753463
0000004080,"",足立千住１丁目店,東京都足立区千住１ー２４ー７,35.744199,139.80493
0000004081,"",墨田２丁目店,東京都墨田区墨田２－５－１,35.728834,139.818946
0000004083,"",長崎店,東京都豊島区長崎４丁目１５番９号,35.726705,139.689104
0000004084,"",大阪高殿２丁目店,大阪府大阪市旭区高殿２ー２ー１２,34.713007,135.540432
0000004085,"",横浜戸塚上倉田店,神奈川県横浜市戸塚区上倉田町３８３番地１,35.392504,139.539516
0000004086,"",渋谷笹塚駅前店,東京都渋谷区笹塚１－５７－２２,35.670582,139.669833
0000004087,"",東名袋井インター店,静岡県袋井市堀越３丁目２０－２,34.750843,137.910905
0000004088,"",江戸川橋店,東京都文京区関口１－１０－１１,35.706282,139.735088
0000004089,"",大樹西本通店,北海道広尾郡大樹町西本通２２,42.489236,143.276963
0000004090,"",川崎百合丘店,川崎市麻生区百合丘１ー２４ー１１,35.607193,139.522244
0000004091,"",茨城神栖奥野谷店,茨城県神栖市奥野谷２０３１,35.879471,140.683866
0000004092,"",西葛西３丁目店,東京都江戸川区西葛西３ー１５ー７,35.661896,139.861705
0000004094,"",赤堀間野谷店,群馬県伊勢崎市赤堀鹿島町１６３０,36.378354,139.260277
0000004095,"",富士見市ふじみ野駅西口店,埼玉県富士見市ふじみ野西１丁目２０番地６,35.857191,139.524755
0000004096,"",空知栗山店,北海道夕張郡栗山町桜丘２丁目３７番１,43.06198,141.783354
0000004097,"",玉造上山店,茨城県行方市芹沢８６６－１,36.147344,140.444053
0000004098,"",赤池町店,福岡県田川郡福智町赤池９４８－３,33.692151,130.768103
0000004099,"",吉祥寺北町５丁目店,東京都武蔵野市吉祥寺北町５丁目７－２７,35.715176,139.575588
0000004100,"",東背振インター店,佐賀県神埼郡吉野ヶ里町大曲４９４６－２,33.346003,130.410743
0000004101,"",板橋南町店,東京都板橋区南町２６－１１,35.736751,139.70418
0000004102,"",福岡今津運動公園前店,福岡県福岡市西区今津４７９８－３１－１,33.604962,130.250679
0000004103,"",足利東武駅前店,栃木県足利市田中町９１１－４,36.325585,139.451461
0000004104,"",粕屋原町駅前店,福岡県糟屋郡粕屋町若宮２丁目７－３２,33.609781,130.473696
0000004105,"",熊本大津店,熊本県菊池郡大津町引水東原７００ー１,32.876682,130.891204
0000004106,"",坂城村上店,長野県埴科郡坂城町大字上五明５３１,36.448102,138.170041
0000004107,"",目黒南３丁目店,東京都目黒区南３ー１１ー１８,35.608582,139.689172
0000004108,"",所沢岩崎店,埼玉県所沢市大字山口１１３１,35.779085,139.446869
0000004109,"",葛飾水元３丁目店,東京都葛飾区水元３－１７－１０,35.780935,139.868761
0000004110,"",北区浮間２丁目店,東京都北区浮間２丁目２５－４,35.787984,139.697024
0000004111,"",藤沢円行店,藤沢市円行１ー２ー１３,35.385904,139.460768
0000004112,"",横浜白幡南店,神奈川県横浜市神奈川区白幡南町３２－１１,35.483088,139.640546
0000004113,"",仙台山田店,仙台市太白区山田上ノ台町２４ー３７,38.216241,140.832636
0000004114,"",横浜鶴見仲通店,神奈川県横浜市鶴見区仲通２－６２－４,35.498126,139.691774
0000004115,"",大宮宮原西口店,埼玉県さいたま市北区宮原町３丁目５３６番地,35.937251,139.611632
0000004116,"",墨田菊川店,東京都墨田区菊川３－１０－６,35.685132,139.811533
0000004117,"",板橋氷川町店,東京都板橋区氷川町２ー１,35.748034,139.710949
0000004118,"",呉市吉浦店,広島県呉市吉浦潭鼓町１－１,34.253478,132.532919
0000004120,"",川口芝新町店,埼玉県川口市芝新町６－１６,35.825463,139.696733
0000004121,"",新潟中野山店,新潟県新潟市東区中野山５丁目１２番６号,37.899432,139.10918
0000004122,"",若林陸橋店,東京都世田谷区若林２－３２－１５,35.646901,139.66651
0000004123,"",南千住７丁目店,荒川区南千住７ー１２ー２,35.732843,139.800455
0000004124,"",白石大平店,宮城県白石市上久保９－１,37.988707,140.621583
0000004125,"",下越巻北店,新潟県新潟市西蒲区巻甲３０６１－６,37.762193,138.891697
0000004126,"",甲府国母店,山梨県甲府市国母１－５－４,35.639766,138.561626
0000004127,"",小倉貫店,福岡県北九州市小倉南区下貫１－４－２８,33.816067,130.936995
0000004129,"",新潟有明店,新潟県新潟市西区有明町１－２１,37.890823,138.989569
0000004130,"",上田中之条店,長野県上田市中之条７６７ー１,36.395379,138.22749
0000004131,"",裾野バイパス北店,静岡県裾野市御宿１０８９－１,35.210118,138.920241
0000004132,"",滝根神俣店,福島県田村市滝根町神俣字一ノ坪１０８番地,37.329191,140.659468
0000004133,"",千倉瀬戸浜海岸店,千葉県南房総市千倉町瀬戸２８９４－２,34.966326,139.963271
0000004136,"",札幌月寒東１条店,北海道札幌市豊平区月寒東１条１７丁目２ー１０,43.015296,141.417866
0000004137,"",宗像自由ヶ丘店,福岡県宗像市田久１０９０－５５,33.795829,130.573746
0000004138,"",利根老神温泉入口店,群馬県沼田市利根町高戸谷６１０－１,36.685973,139.210722
0000004139,"",大信増見店,福島県白河市大信増見字下ノ田５９－１,37.197599,140.249449
0000004140,"",広島安芸中野東店,広島県広島市安芸区中野５ー３ー４０,34.401153,132.581815
0000004142,"",古河北店,茨城県古河市三杉町２ー３２,36.203196,139.72546
0000004143,"",下野野木西口店,栃木県下都賀郡野木町丸林４０８ー１１,36.22761,139.738222
0000004144,"",太田市東金井店,群馬県太田市東金井町８７１ー９,36.314496,139.394558
0000004145,"",上総夷隅店,千葉県いすみ市苅谷１０７２－１,35.27881,140.309683
0000004146,"",新南陽市役所前店,山口県周南市富田１丁目２－１３,34.069556,131.754029
0000004147,"",河内中岡本店,栃木県宇都宮市中岡本町２３９３－６,36.609919,139.951618
0000004148,"",埼玉大井中央店,埼玉県ふじみ野市大井中央２丁目８番地３号,35.85506,139.509957
0000004149,"",下関グリーンモール店,山口県下関市竹崎町２丁目１０ー１８,33.949346,130.92619
0000004150,"",川崎神明町店,神奈川県川崎市幸区神明町１ー５,35.535974,139.694541
0000004151,"",白井桜台店,千葉県白井市桜台２－１,35.797546,140.113455
0000004152,"",渡島森店,北海道茅部郡森町森川町２９５,42.092602,140.576268
0000004153,"",渡島八雲本町店,北海道二海郡八雲町本町１６０,42.24975,140.279971
0000004154,"",池尻大橋店,東京都世田谷区池尻２－３１－１０,35.64633,139.686555
0000004155,"",鴻巣赤見台店,埼玉県鴻巣市赤見台２丁目１６－１,36.08751,139.479808
0000004156,"",横浜新井町店,神奈川県横浜市保土ケ谷区新井町４０７,35.489924,139.553307
0000004157,"",日南上平野町店,宮崎県日南市上平野町１ー３ー１３,31.595914,131.385487
0000004158,"",会津田島店,福島県南会津郡南会津町田島字東町甲２８６８,37.19794,139.782461
0000004159,"",江別うんどう公園店,北海道江別市東野幌本町６７番２,43.081085,141.536959
0000004160,"",福岡田主丸西店,福岡県久留米市田主丸町牧１０６１－３,33.336136,130.652109
0000004161,"",三鷹消研前店,東京都三鷹市新川６ー１３ー５,35.672299,139.570363
0000004162,"",つくば大砂店,茨城県つくば市大砂字西スカ３８６ー６,36.138416,140.045729
0000004163,"",埼玉小鹿野店,埼玉県秩父郡小鹿野町下小鹿野１１６５,36.011082,139.035158
0000004165,"",西桐生駅前店,群馬県桐生市宮前町２丁目７番３号,36.410271,139.336916
0000004166,"",会津下郷店,福島県南会津郡下郷町大字中妻１０８ー２,37.257901,139.88061
0000004167,"",浦和桜田２丁目店,埼玉県さいたま市桜区桜田２－２４－７,35.845571,139.624344
0000004168,"",練馬高野台駅前店,東京都練馬区高野台１－７－２０,35.737638,139.620324
0000004169,"",虻田入江店,北海道虻田郡洞爺湖町入江３４番地,42.535869,140.776146
0000004170,"",名寄中央店,北海道名寄市西４条南４丁目,44.349475,142.461274
0000004171,"",大牟田三池工業高校前店,福岡県大牟田市上官町４－１４７,33.017781,130.45709
0000004172,"",那須関谷店,栃木県那須塩原市関谷２０００番地１,36.950855,139.904936
0000004173,"",世田谷下高井戸店,東京都世田谷区赤堤５－３０－１５,35.662146,139.641977
0000004174,"",安芸府中本町５丁目店,広島県安芸郡府中町本町５ー１ー２１,34.395148,132.505879
0000004175,"",世田谷代沢３丁目店,東京都世田谷区代沢３ー１２ー２１,35.651491,139.676471
0000004176,"",福岡荒戸店,福岡県福岡市中央区荒戸１丁目７ー１４ー１０１,33.589046,130.380171
0000004177,"",上田小牧店,長野県上田市大字小牧字本麦田１０９ー１,36.382765,138.255104
0000004178,"",小田原酒匂店,神奈川県小田原市西酒匂２ー９ー１８,35.264065,139.186785
0000004179,"",北見川東店,北海道北見市川東３８－８,43.796211,143.918651
0000004180,"",柏崎横山店,新潟県柏崎市長峰町８－１４,37.347552,138.572722
0000004181,"",金成インター東店,宮城県栗原市若柳字福岡小谷町浦２９６－１,38.782075,141.119738
0000004182,"",福山駅前店,広島県福山市三之丸町８番１１号,34.484742,133.363962
0000004183,"",西五反田店,東京都品川区西五反田３－６－２２,35.624396,139.722327
0000004184,"",倶知安基町店,北海道虻田郡倶知安町北３条西２丁目６番地,42.901447,140.751624
0000004186,"",府中駅北口店,東京都府中市府中町２ー２ー５,35.669174,139.485247
0000004187,"",川崎堰店,神奈川県川崎市多摩区堰３ー５ー５,35.608002,139.596522
0000004188,"",白浜滝口店,千葉県南房総市白浜町滝口１４７５,34.907582,139.871782
0000004189,"",篠ノ井布施五明店,長野県長野市篠ノ井布施五明３４６４,36.575596,138.132232
0000004190,"",藤沢羽鳥店,神奈川県藤沢市羽鳥３－１－３９,35.338607,139.456974
0000004191,"",目黒平和通り店,東京都目黒区目黒本町５ー３２ー１５,35.618823,139.702205
0000004192,"",新潟山二ツ店,新潟県新潟市中央区山二ツ５－２－１５,37.891601,139.093346
0000004193,"",京王稲田堤駅前店,神奈川県川崎市多摩区菅２－１０－２３,35.62984,139.533921
0000004195,"",下野自治医大店,栃木県下野市祇園１－１３－６,36.392174,139.862191
0000004197,"",横浜上野町店,神奈川県横浜市中区上野町２－９５,35.429971,139.655014
0000004198,"",福岡大橋駅西店,福岡県福岡市南区大橋１ー１８ー１２,33.55507,130.427182
0000004199,"",平塚千石河岸店,神奈川県平塚市千石河岸２－１１,35.315668,139.365597
0000004200,"",川越南古谷店,埼玉県川越市並木２０２－６,35.899832,139.522857
0000004201,"",秦野堀山下店,神奈川県秦野市堀山下６３１,35.384999,139.181516
0000004203,"",大田区仲六郷店,東京都大田区仲六郷１－２８－１１,35.550374,139.71873
0000004204,"",留萌沖見町店,北海道留萌市沖見町２ー３８,43.931661,141.639885
0000004205,"",旭川末広５条店,北海道旭川市末広５条３ー１ー１６,43.809036,142.381207
0000004206,"",北小岩６丁目店,東京都江戸川区北小岩６－１６－１４,35.739455,139.88788
0000004207,"",水戸大工町店,茨城県水戸市大工町３ー５－３,36.379065,140.456474
0000004208,"",羽生インター店,埼玉県羽生市北荻島８５７,36.166759,139.57828
0000004209,"",西会津野沢店,耶麻郡西会津町野沢字芝草後乙ー１７７１,37.584452,139.640404
0000004210,"",福島古殿店,福島県石川郡古殿町田口字黒長１９,37.090685,140.538124
0000004211,"",広島白島中町店,広島県広島市中区白島九軒町６ー１３,34.404068,132.468445
0000004212,"",佐野並木町店,栃木県佐野市並木町１１７５ー２,36.319798,139.552791
0000004213,"",標茶虹別店,北海道川上郡標茶町虹別市街４ー１７,43.46353,144.680626
0000004214,"",宮城中新田矢越店,宮城県加美郡加美町字矢越２６２－１,38.573599,140.863227
0000004215,"",勝田東石川店,茨城県ひたちなか市外野１－３４－２８,36.402062,140.542355
0000004216,"",佐野伊勢山店,栃木県佐野市伊勢山町１４の４,36.318159,139.615382
0000004217,"",川崎登戸新町店,神奈川県川崎市多摩区登戸新町４４７,35.619032,139.570897
0000004219,"",倉敷亀島２丁目店,岡山県倉敷市亀島２ー２４ー２１,34.539992,133.729245
0000004220,"",松戸古ケ崎店,千葉県松戸市古ケ崎８９２,35.790215,139.903791
0000004221,"",台東入谷１丁目店,東京都台東区入谷１－２－３,35.715949,139.790029
0000004223,"",福岡野多目店,福岡県福岡市南区野多目２ー２８ー１６,33.536181,130.429549
0000004224,"",近江草津バイパス店,滋賀県草津市野路東５丁目１番２号,34.992676,135.956107
0000004226,"",芽室東４条２丁目店,北海道河西郡芽室町東４条２ー２ー１,42.908775,143.057941
0000004227,"",釧路昭和４丁目店,北海道釧路市昭和町４丁目８ー２,43.015552,144.367249
0000004228,"",高槻病院前店,大阪府高槻市古曽部町１－７－５,34.853485,135.623768
0000004229,"",茅野堀店,長野県茅野市湖東３２３２ー１,36.019654,138.213882
0000004230,"",磐梯インター店,福島県耶麻郡磐梯町大字磐梯字山道３０９－１,37.557007,140.001307
0000004231,"",飯塚庄内店,福岡県飯塚市綱分１５６６－３,33.628206,130.728496
0000004232,"",駒沢病院前店,東京都世田谷区上馬４－６－７,35.630988,139.663868
0000004233,"",須坂井上店,長野県須坂市大字幸高字荒市場１０１ー１,36.634399,138.290587
0000004234,"",前橋柏倉町店,群馬県前橋市柏倉町１７８－３,36.441263,139.169163
0000004235,"",世田谷三宿１丁目店,東京都世田谷区三宿１－２９－１,35.647177,139.677957
0000004236,"",宇都宮瑞穂野店,栃木県宇都宮市瑞穂３ー２ー７,36.503463,139.924441
0000004237,"",相模大野駅南店,神奈川県相模原市南区相模大野７－２４－１５,35.526496,139.442007
0000004239,"",石狩当別末広店,北海道石狩郡当別町美里１６５４－１,43.217089,141.514391
0000004240,"",札幌拓北店,北海道札幌市北区拓北４条４丁目４－１７,43.150781,141.387132
0000004242,"",静岡横内店,静岡県静岡市葵区横内町７２,34.979476,138.393447
0000004243,"",神奈川中井町店,神奈川県足柄上郡中井町井ノ口２７６１－３,35.344796,139.237388
0000004244,"",野栄町役場前店,千葉県匝瑳市今泉６４９６－１,35.656449,140.571211
0000004245,"",北会津真宮店,福島県会津若松市真宮新町南４丁目１０１番,37.518679,139.876302
0000004246,"",千歳信濃２丁目店,北海道千歳市信濃２ー１２ー１,42.831686,141.63721
0000004247,"",東川口駅南口店,埼玉県川口市戸塚１ー５ー７,35.867738,139.747705
0000004248,"",下館島店,茨城県筑西市島８０－１,36.296018,139.995361
0000004249,"",福山神辺店,広島県福山市神辺町新湯野３丁目４０－４,34.552634,133.391649
0000004250,"",長万部店,北海道山越郡長万部町字長万部１６２,42.513666,140.383115
0000004251,"",南魚沼寺尾店,新潟県南魚沼市寺尾字アミダ堂２５７－１,37.114502,138.904299
0000004252,"",会津田島新町店,福島県南会津郡南会津町田島字鎌倉崎乙４１－２,37.197557,139.766453
0000004253,"",行橋道場寺店,行橋市大字道場寺１２５２ー９,33.685856,131.018343
0000004254,"",会津城南店,会津若松市門田町大字黒岩字大坪１７９,37.470329,139.936485
0000004255,"",福岡冷水バイパス店,福岡県朝倉郡筑前町朝日２８０－１,33.464281,130.573685
0000004258,"",世田谷下北沢店,東京都世田谷区代沢５－２９－１,35.654632,139.670766
0000004260,"",秩父皆野店,埼玉県秩父郡皆野町皆野１６１０,36.066632,139.103227
0000004261,"",豊前発電所入口前店,福岡県豊前市大字八屋２２４３ー１,33.614973,131.124101
0000004262,"",川崎木月店,神奈川県川崎市中原区木月２－１５－５,35.559749,139.658516
0000004264,"",横浜中山北店,神奈川県横浜市緑区中山１丁目７番１６号,35.51154,139.545266
0000004265,"",福岡苅田幸町店,福岡県京都郡苅田町幸町６ー７７,33.789295,130.983979
0000004268,"",清水町長沢店,静岡県駿東郡清水町長沢８６６－１,35.095824,138.89291
0000004270,"",須坂運動公園店,長野県須坂市臥竜６－１１ー１,36.639707,138.322094
0000004271,"",袖ヶ浦駅前通り店,千葉県袖ケ浦市福王台１ー２７ー６,35.424768,139.964825
0000004273,"",市原五井駅前店,千葉県市原市五井中央西１－１５－７,35.510469,140.090297
0000004274,"",浜松アリーナ前店,静岡県浜松市中央区和田町４２７,34.713476,137.771302
0000004275,"",東広島三永店,広島県東広島市西条町大字上三永１８６９,34.397312,132.791321
0000004278,"",世田谷北沢店,世田谷区北沢５ー４３ー７,35.668243,139.669357
0000004279,"",佐倉志津駅前店,千葉県佐倉市上志津１６５６ー５,35.713507,140.147678
0000004280,"",広島飯室店,広島県広島市安佐北区安佐町飯室１６６５ー３,34.54887,132.448907
0000004282,"",松本南原店,長野県松本市南原１丁目２１－１４,36.208882,137.949802
0000004283,"",白井神々廻店,千葉県白井市神々廻１６４６－３,35.801024,140.075963
0000004284,"",横須賀長井３丁目店,神奈川県横須賀市長井３－１２－５０,35.203155,139.623077
0000004285,"",茨城大宮中富店,茨城県常陸大宮市中富町３１０４－８,36.540574,140.4121
0000004286,"",新宿神楽坂駅西店,東京都新宿区矢来町１３１ー１,35.701084,139.735874
0000004287,"",室蘭東町５丁目店,北海道室蘭市東町５－２－４,42.339202,141.025137
0000004288,"",涌谷黄金店,遠田郡涌谷町涌谷字黄金迫前南２ー１６,38.54141,141.146446
0000004289,"",苫小牧青葉店,北海道苫小牧市青葉町１－２－４,42.626666,141.577468
0000004290,"",佐久インター店,佐久市大字岩村田１５０ー１,36.280976,138.486443
0000004292,"",八幡三ケ森店,福岡県北九州市八幡西区三ケ森４－７－８,33.831301,130.740896
0000004293,"",鴨川西條店,千葉県鴨川市八色５６５ー１,35.114184,140.093974
0000004294,"",国分寺東戸倉店,東京都国分寺市東戸倉２ー１ー２,35.710205,139.469891
0000004295,"",真岡熊倉店,栃木県真岡市寺久保１ー８ー４,36.447022,140.005463
0000004296,"",久留米野田店,福岡県久留米市国分町１４１６ー２,33.29582,130.533904
0000004297,"",焼津小川店,静岡県焼津市東小川８丁目１１－１６,34.847232,138.311694
0000004298,"",松戸本町店,千葉県松戸市本町１２－１３,35.782321,139.900602
0000004299,"",後志真狩店,北海道虻田郡真狩村字真狩１１９ー１,42.761002,140.807713
0000004300,"",室蘭輪西店,北海道室蘭市輪西町２ー６ー７,42.332721,141.016796
0000004301,"",船引店,福島県田村市船引町船引字中ノ内前１４－１,37.434924,140.596624
0000004302,"",宇都宮弥生店,栃木県宇都宮市弥生１－８－１６,36.539782,139.870846
0000004303,"",茅ケ崎萩園中央店,茅ケ崎市萩園１２７０ー８１,35.339007,139.381886
0000004304,"",信州山形店,東筑摩郡山形村字東原１７２１ー１,36.162402,137.882788
0000004305,"",石部文化ホール前店,滋賀県湖南市石部中央４丁目８番５７号,35.007935,136.061474
0000004306,"",網走大曲店,北海道網走市大曲１丁目９－３,44.009825,144.231596
0000004307,"",下関新地店,山口県下関市新地西町１０ー３,33.952523,130.922368
0000004308,"",中越堀之内店,新潟県魚沼市堀之内４０２９－１,37.236982,138.931472
0000004309,"",立川高松町西店,東京都立川市高松町３－２１－３,35.70079,139.421046
0000004310,"",水口綾野店,滋賀県甲賀市水口町綾野２０８０－４,34.972137,136.173391
0000004311,"",渋川折原店,群馬県渋川市渋川３６６１－３１,36.494885,138.95723
0000004313,"",下越北吉田店,新潟県燕市吉田鴻巣１－１,37.696724,138.887737
0000004314,"",相模原古渕北店,神奈川県相模原市南区古淵１－６－１０,35.553054,139.42295
0000004315,"",郡山谷田川店,福島県郡山市田村町谷田川字稲荷前５,37.314088,140.437958
0000004316,"",大竹インター店,広島県大竹市黒川１丁目８番３０号,34.243245,132.225388
0000004317,"",つくば北大通り店,茨城県つくば市春日２ー２５ー４,36.083127,140.103594
0000004318,"",練馬土支田店,東京都練馬区土支田１－３１－１１,35.763267,139.621199
0000004319,"",三条東本成寺店,新潟県三条市東本成寺２１ー２,37.612591,138.951507
0000004321,"",札幌北２２条店,北海道札幌市北区北２２条西３丁目２－１５,43.085791,141.348929
0000004322,"",国分寺街道店,国分寺市東元町４ー１６ー２１,35.689543,139.483949
0000004323,"",美野里堅倉店,茨城県小美玉市堅倉１４５８－４,36.234974,140.352577
0000004324,"",台東寿１丁目店,東京都台東区寿１－１８－１,35.704837,139.793949
0000004325,"",仙台西多賀店,仙台市太白区西多賀４ー５ー１７,38.219565,140.855966
0000004326,"",水戸東前町店,茨城県水戸市東前町上の下１３８９,36.341904,140.53158
0000004328,"",坂戸横沼店,埼玉県坂戸市大字横沼３６２ー１,35.960629,139.44871
0000004329,"",宗像赤間郵便局前店,福岡県宗像市赤間５－１－３８,33.802778,130.594115
0000004330,"",横浜大口仲町店,神奈川県横浜市神奈川区大口仲町１０ー２,35.487413,139.645663
0000004331,"",虻田本町店,北海道虻田郡洞爺湖町本町２０４番地,42.545902,140.768594
0000004332,"",新潟寺尾店,新潟県新潟市西区寺尾１４番８号,37.876996,138.981366
0000004333,"",瀬峰藤沢下田店,宮城県栗原市瀬峰下田１８５－６,38.647927,141.080511
0000004334,"",那珂中台店,茨城県那珂市津田２５７７－１９,36.409866,140.490658
0000004335,"",八王子堀之内店,東京都八王子市堀之内２丁目１７－８,35.625965,139.406274
0000004336,"",飯岡平松店,千葉県旭市平松１６０７,35.698816,140.720072
0000004337,"",平塚中堂店,神奈川県平塚市中堂１ー１,35.330041,139.362172
0000004338,"",信州高山高井店,上高井郡高山村高井字鞍掛６４３９ー１,36.660854,138.345135
0000004341,"",東日暮里４丁目店,東京都荒川区東日暮里４ー３６ー１７,35.721738,139.782438
0000004342,"",葛飾亀有３丁目店,東京都葛飾区亀有３ー２７ー３１,35.762576,139.852633
0000004343,"",大田区北千束３丁目店,東京都大田区北千束３ー３５ー３,35.601399,139.689016
0000004344,"",江戸川西瑞江今井店,東京都江戸川区西瑞江３－３２－１２,35.681507,139.892852
0000004345,"",東金求名店,千葉県東金市求名９７ー２,35.575126,140.400916
0000004346,"",総和女沼店,茨城県古河市女沼６９２－２,36.170082,139.744999
0000004347,"",上三川本郷台団地前店,河内郡上三川町西汗西赤堀１７０４ー８,36.477224,139.923771
0000004348,"",いわき三和インター店,福島県いわき市三和町合戸字中館下６２ー１,37.097571,140.777524
0000004349,"",本宮荒井店,福島県本宮市荒井字堀仲８２,37.481343,140.374333
0000004350,"",北茨城インター店,北茨城市磯原町豊田字馬場尻１２３５ー１,36.790796,140.731364
0000004351,"",中野鷺宮１丁目店,東京都中野区鷺宮１ー２８ー７,35.720557,139.647247
0000004352,"",八尾南本町１丁目店,大阪府八尾市南本町１－９－３,34.622329,135.607799
0000004353,"",掛川下垂木店,静岡県掛川市下垂木２２４０ー１１,34.775821,137.983754
0000004354,"",野尻栗須店,宮崎県小林市野尻町三ケ野山１７３０－１,31.973937,131.059393
0000004355,"",宮崎村角町店,宮崎県宮崎市村角町前畑４８５ー１,31.952448,131.44653
0000004356,"",玉名中店,熊本県玉名市中１９１９ー１,32.927848,130.552634
0000004357,"",広島白木井原店,広島県広島市安佐北区白木町井原東日詰８６０－２,34.584306,132.67986
0000004358,"",鬼怒川立岩店,栃木県日光市鬼怒川温泉大原１４２２番地１,36.81994,139.715483
0000004359,"",茨城町上石崎店,茨城県東茨城郡茨城町上石崎５９６３,36.305224,140.464013
0000004360,"",下郷湯野上店,福島県南会津郡下郷町湯野上橋詰乙４４９,37.296082,139.900729
0000004361,"",干潟入野店,千葉県旭市入野７９２－１１,35.763676,140.629269
0000004362,"",太田市東長岡町店,群馬県太田市東長岡町１４９６ー１,36.29904,139.396144
0000004363,"",岩内東山店,北海道岩内郡岩内町字東山１３３ー１,42.976899,140.528857
0000004364,"",札幌北郷９条店,北海道札幌市白石区北郷９条７丁目６－１５,43.067069,141.428841
0000004365,"",青梅柚木店,東京都青梅市柚木町１ー１４８ー２,35.794107,139.216891
0000004366,"",草加新里下町店,埼玉県草加市新里町３５４－１,35.806532,139.784419
0000004367,"",仙台名取大橋店,宮城県仙台市太白区郡山字小原２０－２,38.208788,140.89631
0000004368,"",川崎新作店,神奈川県川崎市高津区新作４ー１２ー４,35.583315,139.622241
0000004369,"",千葉神崎店,千葉県香取郡神崎町神崎本宿３２０６番地１,35.896076,140.412133
0000004370,"",仙台柏木店,宮城県仙台市青葉区柏木２ー４ー５０,38.270574,140.85626
0000004371,"",豊島５丁目店,東京都北区豊島５ー１ー３２,35.760546,139.754455
0000004372,"",市川大洲店,千葉県市川市大洲３ー１０ー１３,35.717355,139.910666
0000004373,"",北区昭和町店,東京都北区昭和町１－４－１０,35.743241,139.75958
0000004374,"",仙台原町５丁目店,宮城県仙台市宮城野区原町５－２－８,38.265774,140.914532
0000004375,"",仙台虹の丘店,宮城県仙台市泉区虹の丘２－３－９,38.301118,140.870302
0000004377,"",会津高塚団地前店,福島県会津若松市河東町南高野字高塚２７５,37.551971,139.955413
0000004378,"",荏原４丁目店,東京都品川区荏原４ー３ー１,35.613179,139.710405
0000004379,"",立川諏訪通り店,東京都立川市柴崎町２ー１０ー１５,35.692921,139.411938
0000004380,"",大子池田松沼店,茨城県久慈郡大子町池田字松沼２８１５－１,36.766507,140.361669
0000004381,"",藤沢駅前店,神奈川県藤沢市藤沢１０８,35.336646,139.492199
0000004382,"",南小岩７丁目店,東京都江戸川区南小岩７ー２０ー９,35.728844,139.886355
0000004383,"",検見川浜店,千葉県千葉市美浜区磯辺４－３－３,35.626209,140.063372
0000004384,"",上山田店,長野県千曲市上山田温泉４－３－１３,36.470499,138.15063
0000004385,"",江戸川春江町５丁目店,東京都江戸川区春江町５ー１５ー１１,35.67576,139.876169
0000004386,"",中間小田ケ浦店,中間市弥生町１ー１４ー２５,33.805495,130.721548
0000004387,"",草津パナソニック前店,滋賀県草津市野路東２丁目１番６号,34.987437,135.955529
0000004388,"",呉市郷町店,広島県呉市中央７ー３ー８,34.250681,132.571687
0000004389,"",山口大畠駅前店,山口県柳井市神代４１８１－５,33.960182,132.184482
0000004390,"",府中分梅店,東京都府中市分梅町３－６２－１,35.66451,139.462139
0000004391,"",横須賀安浦店,神奈川県横須賀市安浦町３－２５,35.266085,139.683574
0000004395,"",湖西白須賀店,湖西市白須賀３９８５ー２８３７,34.712187,137.498688
0000004397,"",福山手城店,広島県福山市南手城町３丁目１４番２号,34.478965,133.398126
0000004398,"",習志野鷺沼店,習志野市鷺沼１ー１４ー２８,35.672296,140.027794
0000004400,"",都立文京高校前店,豊島区巣鴨４ー７ー６,35.732882,139.733502
0000004401,"",福山曙５丁目店,広島県福山市曙町５ー１９ー４３,34.464137,133.395471
0000004402,"",勝浦興津店,千葉県勝浦市興津７８２－３,35.136407,140.252194
0000004403,"",札幌三角点通り店,札幌市東区東苗穂１２条２ー６ー１５,43.102129,141.423815
0000004404,"",岡垣ぬか塚店,遠賀郡岡垣町大字糠塚９０７ー１．５２３,33.863262,130.637929
0000004405,"",坂下インター店,河沼郡会津坂下町大字坂本字窪甲５７３,37.553819,139.766463
0000004406,"",加須久下店,埼玉県加須市久下３－３８５－１,36.120726,139.615077
0000004407,"",博多千代１丁目店,福岡県福岡市博多区千代１ー２９ー２１,33.599906,130.422354
0000004408,"",茅ケ崎南湖店,茅ケ崎市南湖５ー１８ー１９,35.319146,139.392122
0000004409,"",武蔵小山西口店,東京都目黒区目黒本町３－５－７,35.617596,139.70573
0000004410,"",五井高場店,市原市五井高場５４８８ー１,35.516174,140.092472
0000004412,"",都留文大通り店,山梨県都留市上谷６－９－２５,35.540673,138.906402
0000004413,"",札幌山鼻店,札幌市中央区南１３条西６ー４ー１６,43.040408,141.354435
0000004414,"",宇都宮宝木本町店,栃木県宇都宮市宝木本町１１４１－１１１,36.60056,139.849683
0000004415,"",久米川店,東村山市恩多町２ー２５ー１,35.745468,139.482944
0000004416,"",文京目白台２丁目店,東京都文京区目白台２ー１４ー１５,35.715416,139.725699
0000004417,"",武蔵村山岸店,武蔵村山市中原１ー３０ー１７,35.750299,139.365755
0000004418,"",東越谷６丁目店,埼玉県越谷市東越谷６丁目２６番地６,35.893159,139.807046
0000004419,"",柳川矢加部店,福岡県柳川市矢加部４９２－１,33.181025,130.418393
0000004420,"",三井北野店,福岡県久留米市北野町高良１０５４－２,33.336031,130.576056
0000004421,"",十日町西店,新潟県十日町市下川原町２０－１,37.138737,138.762249
0000004423,"",若松藤ノ木店,福岡県北九州市若松区赤島町２－４７,33.890296,130.782793
0000004424,"",平塚南口店,神奈川県平塚市代官町３０－２３,35.324246,139.357316
0000004425,"",安房勝山店,安房郡鋸南町下佐久間８０３ー１,35.106343,139.838741
0000004426,"",高根沢花岡店,栃木県塩谷郡高根沢町花岡１－１,36.643299,140.014458
0000004427,"",佐賀川久保店,佐賀県佐賀市久保泉町大字川久保２２９２－２９,33.321734,130.321515
0000004428,"",掛川水垂店,掛川市御所原１１ー１５,34.777857,138.022883
0000004429,"",甲府南インター店,山梨県甲府市下曽根町２９５－８,35.592577,138.579438
0000004432,"",上湧別店,北海道紋別郡湧別町中湧別南町９２５番地３,44.179722,143.594259
0000004433,"",前橋富士見皆沢店,群馬県前橋市富士見町皆沢１１１－２,36.461868,139.116996
0000004436,"",保谷本町店,東京都西東京市保谷町６－２５－２,35.73401,139.556271
0000004437,"",南葛西１丁目店,江戸川区南葛西１ー１３ー９,35.651035,139.875397
0000004438,"",飯田市立病院前店,長野県飯田市鼎名古熊２６０５ー５,35.495554,137.837007
0000004440,"",京都桂坂店,京都市西京区大枝沓掛町９ー１８１,34.971454,135.672666
0000004441,"",越谷大里店,越谷市大字大里字仲田２７２ー４,35.916554,139.788114
0000004442,"",寝屋川萱島南店,大阪府寝屋川市萱島南町７番１５号,34.742684,135.618291
0000004443,"",光市三井店,光市三井５－２０－１５,33.98397,131.952988
0000004444,"",中越湯沢神立店,新潟県南魚沼郡湯沢町大字神立１４６２ー１,36.920943,138.827566
0000004445,"",長泉南店,駿東郡長泉町本宿４７６,35.117107,138.895372
0000004446,"",呉市四ツ道路店,広島県呉市本通２ー７ー１６,34.239129,132.568004
0000004447,"",小諸御影店,長野県小諸市大字御影新田２５９５－１,36.294558,138.470937
0000004448,"",江戸崎蒲ヶ山店,茨城県稲敷市蒲ヶ山２１－５２,35.966324,140.285872
0000004450,"",宇都宮駅前店,宇都宮市駅前通１ー５ー１,36.556496,139.899816
0000004451,"",世田谷上野毛店,東京都世田谷区上野毛１－２９－３,35.610396,139.640897
0000004452,"",永福北口店,東京都杉並区和泉３－３１－５,35.675382,139.648738
0000004453,"",浜松豊町店,静岡県浜松市中央区豊町１９９０－１,34.776734,137.805235
0000004454,"",川崎中野島東店,神奈川県川崎市多摩区中野島４ー７ー８,35.62731,139.56368
0000004455,"",横芝屋形店,千葉県山武郡横芝光町屋形５１０５－７,35.60681,140.525249
0000004456,"",黒磯下厚崎店,栃木県那須塩原市下厚崎２６４,36.953129,140.048666
0000004457,"",越後湯沢西口店,南魚沼郡湯沢町大字湯沢２４５０,36.932973,138.811502
0000004458,"",川越東田町店,埼玉県川越市東田町５－１,35.904798,139.479541
0000004459,"",土浦木田余店,土浦市木田余字浅間下４９２８,36.092355,140.215333
0000004462,"",中越来迎寺店,新潟県長岡市来迎寺４０１８,37.391466,138.790652
0000004463,"",佐久根々井店,佐久市大字根々井２０８ー１,36.253432,138.463313
0000004464,"",網走北６条店,北海道網走市北六条西６丁目６番地,44.021594,144.261019
0000004468,"",恵庭柏陽町店,恵庭市柏陽町３ー１２ー５,42.89331,141.574824
0000004470,"",八幡高江店,福岡県北九州市八幡西区高江１ー２ー７,33.797365,130.72112
0000004471,"",三原宗郷店,広島県三原市宗郷２丁目１番３０号,34.38221,133.068557
0000004472,"",郡山八山田店,郡山市八山田５－１,37.422465,140.380574
0000004474,"",長野若穂西店,長野県長野市若穂川田領家１６８０ー１,36.605596,138.248583
0000004475,"",千葉問屋町店,千葉県千葉市中央区問屋町１２－３,35.598327,140.113769
0000004476,"",京都烏丸丸太町西店,京都府京都市上京区椹木町通衣棚西入今薬屋町３２８,35.014365,135.760224
0000004478,"",秦野尾尻店,神奈川県秦野市尾尻９４０－５,35.364918,139.228947
0000004479,"",北区東十条駅前店,東京都北区中十条２ー９ー１５,35.759021,139.730249
0000004481,"",高崎足門店,群馬県高崎市足門町２９７－９,36.399519,138.987501
0000004482,"",石神井南店,練馬区下石神井４ー５ー２０,35.725144,139.609811
0000004483,"",川崎東長澤店,川崎市多摩区南生田５ー２ー９,35.598643,139.544697
0000004484,"",土浦荒川沖駅前店,土浦市中荒川沖１ー２,36.027237,140.168599
0000004485,"",藤枝田沼店,静岡県藤枝市田沼１丁目１３番１４号,34.845554,138.260957
0000004486,"",市原双葉中前店,千葉県市原市光風台１－３５０,35.441629,140.116449
0000004487,"",福岡壱岐団地北店,福岡市西区拾六町１ー１９ー９,33.561111,130.316737
0000004488,"",豊津錦町店,福岡県京都郡みやこ町豊津２５８番地,33.67822,130.974204
0000004489,"",佐賀高木瀬東５丁目店,佐賀県佐賀市高木瀬東５丁目２１ー１１,33.28392,130.299912
0000004490,"",いわき泉下川店,いわき市泉町下川字田宿３８,36.935527,140.867804
0000004492,"",柏中新宿店,千葉県柏市中新宿２ー４ー１,35.832357,139.950002
0000004493,"",辰野平出店,上伊那郡辰野町大字平出１５９６ー１,35.979249,138.004349
0000004494,"",札幌北３２条店,北海道札幌市東区北３２条東１丁目８－１６,43.09748,141.352701
0000004495,"",豊島園駅前店,練馬区練馬４ー１５ー１７,35.739562,139.652136
0000004496,"",新井長森店,新潟県妙高市大字長森字堂ノ浦７６９－１,37.016724,138.230905
0000004497,"",川西町千手店,新潟県十日町市中屋敷２１６－１,37.160933,138.741069
0000004498,"",横浜六角橋店,神奈川県横浜市神奈川区六角橋１－８－７,35.485401,139.629213
0000004500,"",塩川町店,福島県喜多方市塩川町字東栄町４－４－１,37.594246,139.895024
0000004501,"",紋別落石店,北海道紋別市落石町４丁目１６番３２号,44.362294,143.341966
0000004502,"",大洗駅前通り店,茨城県東茨城郡大洗町桜道２１０,36.314874,140.568652
0000004503,"",大田区鵜の木２丁目店,東京都大田区鵜の木２ー１５ー１７,35.572059,139.682897
0000004504,"",千葉栄町店,千葉県千葉市中央区栄町２６ー４,35.610177,140.124814
0000004505,"",富津千種新田店,富津市千種新田３２５,35.290873,139.858894
0000004506,"",須賀川芦田塚店,福島県須賀川市芦田塚６２－３,37.291265,140.385263
0000004507,"",紋別港町店,北海道紋別市港町８丁目１番７号,44.344747,143.360307
0000004508,"",調布深大寺東５丁目店,東京都調布市深大寺東町５－９－３,35.669374,139.561577
0000004510,"",大宮日進駅西店,埼玉県さいたま市北区日進町２－１１３６,35.927371,139.607669
0000004511,"",松戸栄７丁目店,千葉県松戸市栄町７ー５５２,35.807582,139.910724
0000004512,"",富士市比奈店,静岡県富士市比奈１２８９ー２,35.161791,138.72266
0000004513,"",川越古谷上東店,埼玉県川越市大字古谷上５６９２ー１８,35.917432,139.534527
0000004514,"",防府中関店,山口県防府市田島４２５－３５,34.019851,131.554068
0000004515,"",渋谷笹塚東店,東京都渋谷区幡ヶ谷１－１１－１１,35.67101,139.675047
0000004516,"",世田谷区役所前店,世田谷区若林４－３１－８,35.642762,139.656871
0000004517,"",大泉朝日店,群馬県邑楽郡大泉町朝日２－１６－１,36.249235,139.428849
0000004518,"",杉並上荻１丁目店,東京都杉並区上荻１ー５ー８,35.701832,139.625219
0000004519,"",板橋西台店,東京都板橋区西台３ー１７ー１,35.77046,139.673611
0000004520,"",中野弥生町２丁目店,東京都中野区弥生町２－１７－５,35.687021,139.677497
0000004521,"",上総長南店,千葉県長生郡長南町長南１１９８ー２,35.397418,140.236157
0000004522,"",宮城田尻店,宮城県大崎市田尻字北大杉３１－１,38.595921,141.020574
0000004524,"",戸田本町１丁目店,埼玉県戸田市本町１ー５ー５,35.805471,139.68611
0000004525,"",河南伊勢前店,宮城県石巻市鹿又字伊勢前５７－３,38.485391,141.295761
0000004526,"",君津中富店,千葉県君津市中富９７５－３,35.33004,139.883191
0000004527,"",三春桜川店,福島県郡山市西田町大田字宮田３８１ー１,37.430016,140.468577
0000004528,"",有明竜王駅前店,佐賀県杵島郡白石町大字坂田２７４－５,33.143884,130.124879
0000004529,"",神栖１丁目店,茨城県神栖市神栖１－９－１,35.895005,140.647144
0000004531,"",上毛町役場前店,福岡県築上郡上毛町大字宇野８５１番地１,33.574648,131.165059
0000004533,"",二本松安達ヶ原店,福島県二本松市安達ケ原４丁目２３７－１,37.590038,140.466602
0000004534,"",高崎旭町店,群馬県高崎市旭町１１ー９,36.323204,139.013358
0000004535,"",鏡石町店,岩瀬郡鏡石町鏡田不時沼６３,37.255127,140.352414
0000004536,"",北浦岡店,茨城県行方市山田３０１４－３,36.081602,140.524516
0000004538,"",八街吉倉店,八街市吉倉６３７ー１,35.621569,140.293427
0000004539,"",墨田八広南店,東京都墨田区八広２ー１５ー２０,35.712896,139.82788
0000004540,"",石橋下古山店,栃木県下野市文教３丁目８番地１,36.443913,139.864691
0000004541,"",気仙沼神山店,宮城県気仙沼市神山２ー１,38.889636,141.572002
0000004542,"",小山土塔店,栃木県小山市土塔２３４ー１,36.29861,139.825066
0000004543,"",郡山大町１丁目店,福島県郡山市大町１－３－２,37.395413,140.388472
0000004544,"",茨城八千代成田店,茨城県結城郡八千代町菅谷２１３０ー３,36.192415,139.870136
0000004545,"",宮崎大島町店,宮崎県宮崎市大島町国草１２３－１,31.938526,131.442904
0000004546,"",横須賀上町店,神奈川県横須賀市上町２ー７,35.271451,139.673055
0000004547,"",あきる野戸倉店,東京都あきる野市戸倉１８３,35.724821,139.208218
0000004548,"",岩国関戸店,岩国市大字関戸１０００ー１,34.172809,132.185246
0000004549,"",福大片江店,福岡県福岡市城南区西片江１丁目３－３６,33.542036,130.371567
0000004550,"",旭東足洗店,千葉県旭市東足洗２７４６ー１５,35.697734,140.687764
0000004551,"",新潟小新店,新潟県新潟市西区小新西３－１５－１０,37.87038,138.996441
0000004552,"",大郷町店,宮城県黒川郡大郷町中村字山中１－１,38.420882,140.999022
0000004553,"",紋別花園店,北海道紋別市花園町２丁目４番２号,44.34813,143.353505
0000004554,"",足利岩井町店,栃木県足利市岩井町７９１ー５,36.323785,139.465154
0000004556,"",新篠津村店,北海道石狩郡新篠津村第４７線北１１,43.221899,141.654574
0000004557,"",石巻中里５丁目店,石巻市中里５ー２ー１,38.439977,141.298797
0000004558,"",富津浜金谷店,千葉県富津市金谷２１７４－２,35.164904,139.823383
0000004559,"",中野鷺宮６丁目店,東京都中野区鷺宮６－３０－１８,35.723985,139.630435
0000004560,"",大和渋谷３丁目店,神奈川県大和市渋谷３ー９ー１,35.434754,139.465016
0000004561,"",江東森下４丁目店,東京都江東区森下４ー１５ー７,35.682837,139.807908
0000004562,"",飯野町店,福島県福島市飯野町大久保字北町２５－１,37.660935,140.549824
0000004563,"",栗沢町店,北海道岩見沢市栗沢町最上２８９番地１,43.117444,141.751444
0000004564,"",氏家桜野店,栃木県さくら市桜野９２５－３,36.684743,139.983235
0000004565,"",南大井浜川店,東京都品川区南大井４丁目９－２,35.59309,139.738752
0000004566,"",見附市役所通り店,新潟県見附市市野坪町１２２８ー１,37.528093,138.912777
0000004567,"",西新小岩店,東京都葛飾区西新小岩４ー３８ー１９,35.717898,139.858046
0000004568,"",東村山富士見町店,東村山市富士見町５ー３ー３６,35.741346,139.466699
0000004569,"",上田住吉店,長野県上田市住吉２７１－１,36.402752,138.279446
0000004570,"",いわき白水町店,福島県いわき市内郷白水町桜田２ー４,37.029268,140.847136
0000004571,"",君津根本店,千葉県君津市根本８９４－１,35.299168,139.990602
0000004573,"",東部田中店,長野県東御市県１３７－７,36.35486,138.333691
0000004574,"",真岡長田店,栃木県真岡市長田４丁目５番８,36.434365,139.965344
0000004575,"",猿島逆井店,茨城県坂東市逆井７７７－１１,36.129588,139.850102
0000004576,"",門司丸山店,福岡県北九州市門司区丸山吉野町３ー４,33.935476,130.973957
0000004577,"",磐田一言店,静岡県磐田市一言４５８,34.721873,137.837646
0000004578,"",いわき遠野店,福島県いわき市遠野町上遠野字太田１０１ー１,37.003118,140.74421
0000004580,"",田無本町４丁目店,東京都西東京市田無町４－２３－１,35.725763,139.541897
0000004581,"",横浜菊名駅前店,神奈川県横浜市港北区大豆戸町１９９イ,35.507144,139.633972
0000004582,"",水原町北本町店,新潟県阿賀野市北本町３５２９－１,37.838784,139.230857
0000004583,"",越後中里村田沢店,新潟県十日町市上山己２７６１,37.051701,138.702791
0000004586,"",広島草津新町店,広島県広島市西区草津新町２－９－１４,34.371807,132.397412
0000004587,"",美瑛栄町店,北海道上川郡美瑛町栄町１ー３４０,43.587355,142.464777
0000004588,"",銚子忍町店,千葉県銚子市忍町５２ー７,35.777196,140.740805
0000004590,"",横浜三ツ沢下町店,神奈川県横浜市神奈川区三ツ沢下町３ー１７,35.473107,139.617441
0000004591,"",迫佐沼小金丁店,宮城県登米市迫町佐沼字小金丁５４,38.682888,141.194604
0000004592,"",郡山安積町店,福島県郡山市安積町長久保１－２－４,37.35869,140.367338
0000004593,"",蕨塚越５丁目店,埼玉県蕨市塚越５ー３９ー１４,35.817201,139.706641
0000004595,"",所沢中富南店,所沢市中富南２ー１３ー２,35.808376,139.499966
0000004596,"",行田栄町店,行田市栄町１５ー３３,36.142919,139.464127
0000004597,"",茅ケ崎辻東店,神奈川県茅ケ崎市今宿１８９,35.334484,139.389027
0000004598,"",松戸南花島店,千葉県松戸市南花島１－３－５,35.788032,139.915449
0000004599,"",下野氏家勝山店,栃木県さくら市氏家１２０５－２,36.658018,139.96013
0000004600,"",内原町役場前店,茨城県水戸市内原町１４３０－３,36.361018,140.357969
0000004601,"",中越大和南店,新潟県南魚沼市一村尾１６２３－１,37.146865,138.914968
0000004602,"",北斗本町店,北海道北斗市本町５丁目３２番４５号,41.874278,140.652391
0000004603,"",東金家徳店,千葉県東金市家徳６７７－２,35.544929,140.400385
0000004604,"",昭島駅北口店,東京都昭島市代官山２丁目９番２号,35.710927,139.363863
0000004605,"",宝塚山本西店,兵庫県宝塚市山本西２丁目７－１１,34.815501,135.383871
0000004606,"",世田谷砧６丁目店,東京都世田谷区砧６－３９－２,35.63964,139.612668
0000004607,"",春日部市粕壁東３丁目店,埼玉県春日部市粕壁東３－８－４６,35.976174,139.763852
0000004608,"",静岡聖一色店,静岡県静岡市駿河区聖一色４１－１,34.981068,138.429877
0000004609,"",群馬吾妻原町店,群馬県吾妻郡東吾妻町原町７０６－１,36.570404,138.829558
0000004610,"",千葉桜木町北店,千葉県千葉市若葉区桜木６丁目１番１５号,35.625718,140.156555
0000004612,"",三笠いちきしり店,北海道三笠市いちきしり９５４ー７６,43.241852,141.860026
0000004613,"",鵡川宮戸店,北海道勇払郡むかわ町宮戸７３,42.572663,141.950627
0000004614,"",茨城大宮八田店,茨城県常陸大宮市八田２１２５－１,36.563021,140.393008
0000004615,"",本宮高木店,福島県本宮市高木字中丸１６－１,37.509632,140.414819
0000004616,"",足立東和１丁目店,東京都足立区東和１ー２ー５,35.761057,139.838999
0000004617,"",大田区池上３丁目店,大田区池上３ー３３ー５,35.570696,139.704446
0000004618,"",福山木之庄店,広島県福山市木之庄町２ー１３ー４１,34.49631,133.356799
0000004619,"",大和つきみ野駅北店,神奈川県大和市下鶴間５２４ー１,35.508498,139.462607
0000004621,"",福山加茂店,広島県福山市加茂町上加茂１９７－１,34.562337,133.348665
0000004622,"",沼隈町店,広島県福山市沼隈町草深１９８２－１,34.384206,133.325371
0000004623,"",小山横倉新田店,栃木県小山市横倉新田３１２－１,36.278604,139.829613
0000004624,"",結城市結城作店,茨城県結城市大字結城字屋敷附作１７７ー７,36.271102,139.852091
0000004625,"",栃木川原田町店,栃木県栃木市川原田町２０１,36.397068,139.737799
0000004626,"",仙台三条町店,宮城県仙台市青葉区三条町１１－２３,38.278352,140.856141
0000004627,"",飯島七久保店,長野県上伊那郡飯島町七久保１９０８,35.65759,137.91291
0000004628,"",郡山横塚店,福島県郡山市横塚２ー２３３ー１,37.395324,140.404513
0000004629,"",小布施雁田店,長野県上高井郡小布施町大字雁田９７７－３,36.686087,138.32701
0000004630,"",矢吹大畑店,福島県西白河郡矢吹町大畑１１,37.191184,140.359402
0000004631,"",宇部高校前店,山口県宇部市山門三丁目５番２４号,33.959581,131.274227
0000004632,"",福岡箱崎１丁目店,福岡県福岡市東区箱崎１ー２９ー２７,33.615243,130.426228
0000004633,"",木更津岩根店,千葉県木更津市岩根３ー１０ー２９,35.410777,139.934516
0000004634,"",宇都宮簗瀬町店,栃木県宇都宮市平松本町１１０８,36.540099,139.906649
0000004635,"",川崎久末団地店,神奈川県川崎市高津区久末３３８ー３,35.559085,139.61853
0000004637,"",大里冑山店,埼玉県熊谷市船木台１－１８－５,36.070827,139.425763
0000004638,"",栗駒岩ケ崎四日町店,宮城県栗原市栗駒岩ヶ崎神南５－１,38.829055,141.001172
0000004639,"",河南前谷地店,宮城県石巻市前谷地字西横須賀１１１番地,38.50778,141.19138
0000004640,"",富士市長沢店,静岡県富士市厚原字長沢３５１ー１３,35.175982,138.658872
0000004641,"",横浜三枚町店,神奈川県横浜市神奈川区三枚町６４０,35.483407,139.597008
0000004642,"",宮城東和錦織店,宮城県登米市東和町錦織字内ノ目３４－３５,38.729433,141.278505
0000004643,"",綾入野店,宮崎県東諸県郡綾町大字入野１１７１番１,31.995589,131.260051
0000004644,"",川崎田尻町店,神奈川県川崎市中原区田尻町３４ー２,35.557051,139.675906
0000004646,"",邑楽中野横町店,群馬県邑楽郡邑楽町中野横町４６３４ー２,36.257038,139.471691
0000004647,"",福岡早見店,福岡県糟屋郡宇美町宇美中央２丁目１７番１１号,33.566803,130.52131
0000004648,"",水戸西原店,茨城県水戸市西原３ー６ー３２,36.390046,140.446658
0000004649,"",岡山下中野店,岡山県岡山市北区下中野７１８－１０１,34.632474,133.895182
0000004650,"",東金幸田店,千葉県東金市幸田１２００ー１,35.542093,140.383036
0000004651,"",飯田山本店,長野県飯田市山本５９７６,35.453301,137.75638
0000004652,"",三和東山田店,茨城県古河市東山田３７２２－３,36.15641,139.83008
0000004653,"",釧路堀川町店,北海道釧路市堀川町２番５号,42.991922,144.396352
0000004654,"",二宮バイパス店,栃木県真岡市久下田西６－３０,36.369704,139.966757
0000004655,"",大阪ナインモール九条店,大阪府大阪市西区九条１丁目１６－１８,34.671367,135.479211
0000004656,"",相模原二本松１丁目店,神奈川県相模原市緑区二本松１－１１－１６,35.589149,139.324819
0000004657,"",幸手千塚店,埼玉県幸手市大字千塚字柳橋９０９ー２,36.087704,139.705636
0000004658,"",熊本城山下代町店,熊本県熊本市西区城山下代２－７－２２,32.774381,130.654812
0000004659,"",仙台沖野小学校前店,宮城県仙台市若林区沖野６丁目５－１６,38.221885,140.917038
0000004660,"",白岡西７丁目店,埼玉県白岡市西７丁目９－１,36.020741,139.655406
0000004661,"",佐野厄よけ大師前店,栃木県佐野市大橋町２１９１番１,36.308471,139.572538
0000004662,"",帯広弥生通店,北海道帯広市西１０条南２９丁目１ー１,42.895446,143.196752
0000004663,"",札幌屯田３条店,札幌市北区屯田３条７丁目９ー２２,43.125191,141.331637
0000004664,"",流山美原店,千葉県流山市美原２ー３１ー４,35.89749,139.905747
0000004665,"",千葉星久喜東店,千葉県千葉市中央区星久喜町５７７ー６,35.595384,140.156333
0000004666,"",水戸堀町南店,茨城県水戸市堀町字新田２０５６ー１２,36.393224,140.431222
0000004667,"",横須賀長沢駅前店,神奈川県横須賀市グリーンハイツ３ー２,35.202848,139.676929
0000004668,"",和光丸山台店,埼玉県和光市丸山台２ー１３ー１１,35.781546,139.620222
0000004669,"",阪急石橋駅前店,大阪府池田市石橋２丁目２－１０,34.805582,135.448887
0000004670,"",会津門田丑渕店,福島県会津若松市飯寺南１丁目２番１５号,37.473465,139.914115
0000004671,"",涌谷バイパス店,宮城県遠田郡涌谷町字田町裏３３ー１,38.52858,141.132197
0000004672,"",真岡バイパス店,栃木県真岡市田町字三島１５７８ー１,36.432299,140.018833
0000004673,"",前橋三俣３丁目店,群馬県前橋市三俣３ー２ー２８,36.40199,139.083741
0000004674,"",板橋志村１丁目店,東京都板橋区志村１ー３４ー１４,35.772813,139.695261
0000004675,"",土浦中店,茨城県土浦市中坂下２９８ー１,36.054373,140.17718
0000004676,"",伊丹南鈴原２丁目店,兵庫県伊丹市南鈴原２丁目２０８,34.76814,135.407771
0000004678,"",つくば松代店,茨城県つくば市松代２－１－３,36.070143,140.10041
0000004679,"",墨田両国３丁目店,東京都墨田区両国３ー２０ー３,35.690993,139.797635
0000004680,"",倉敷児島下の町９丁目店,岡山県倉敷市児島下の町９－１２,34.472562,133.834624
0000004681,"",八雲住初町店,北海道二海郡八雲町住初町１３,42.252916,140.269371
0000004682,"",帯広西２３南１丁目店,北海道帯広市西２３条南１丁目１３２－１,42.919486,143.133574
0000004683,"",銚子笠上町店,千葉県銚子市笠上町６０７４－２,35.727918,140.860235
0000004684,"",富浦１２７号バイパス店,千葉県南房総市富浦町深名５４０－１,35.033816,139.853794
0000004686,"",大田区蒲田１丁目店,東京都大田区蒲田１ー２７ー７,35.561554,139.720982
0000004687,"",福山山手店,広島県福山市山手町４－２－２,34.489292,133.335612
0000004688,"",千葉幕張本郷店,千葉市花見川区幕張本郷６ー２４ー３１,35.671174,140.048027
0000004689,"",銚子豊里台店,千葉県銚子市豊里台１ー１０４４ー３７,35.786574,140.714964
0000004691,"",更埴市民体育館前店,長野県千曲市杭瀬下４丁目５番,36.528312,138.118093
0000004692,"",上越東雲町店,新潟県上越市東雲町２丁目１２５３,37.164532,138.246188
0000004693,"",世田谷鎌田２丁目店,東京都世田谷区鎌田２ー２２ー８,35.616796,139.611877
0000004694,"",乙部町店,北海道爾志郡乙部町字元町２９３ー１,41.9653,140.137382
0000004695,"",青梅駅前店,東京都青梅市本町１３１ー２６,35.786979,139.261002
0000004696,"",会津芦ノ牧店,福島県会津若松市大戸町小谷湯ノ平８７,37.363246,139.920716
0000004697,"",棚倉下志宝店,福島県東白川郡棚倉町関口下志宝２６ー１,37.029613,140.39253
0000004698,"",江東門前仲町店,東京都江東区門前仲町２ー６ー１,35.669565,139.798641
0000004699,"",日南飫肥店,宮崎県日南市星倉１丁目１０番地４,31.625414,131.365454
0000004700,"",郡山東原店,福島県郡山市八山田西一丁目２７５番地,37.425365,140.360222
0000004701,"",札幌南４条東店,北海道札幌市中央区南４条東４－１,43.055386,141.366015
0000004702,"",札幌北郷公園前店,北海道札幌市白石区北郷８条１０丁目２－６０,43.062263,141.434382
0000004703,"",芽室南町店,北海道河西郡芽室町西１条南６丁目１－１,42.900458,143.053071
0000004704,"",旭川緑町店,北海道旭川市緑町２５丁目２１７４番地９６,43.7932,142.325243
0000004705,"",飯野青木平店,福島県福島市飯野町青木字平９４番地１,37.682452,140.552441
0000004707,"",文京本駒込１丁目店,東京都文京区本駒込１ー１１ー３,35.721579,139.753652
0000004708,"",神戸琴ノ緒町店,兵庫県神戸市中央区琴ノ緒町２－５－４,34.69459,135.199297
0000004709,"",神埼町姉川店,佐賀県神埼市神埼町姉川１８８８,33.278859,130.346787
0000004710,"",久留米荒木鷲塚店,福岡県久留米市荒木町荒木１３９７ー１,33.264012,130.50787
0000004711,"",豊島西池袋１丁目店,東京都豊島区西池袋１－５－１,35.724613,139.712069
0000004712,"",信州中野店,長野県中野市大字中野１７５３,36.745391,138.373721
0000004713,"",西那須野南赤田店,栃木県那須塩原市南赤田３２０－３７,36.902968,139.956894
0000004714,"",相模原上矢部店,神奈川県相模原市中央区上矢部４－２６－１,35.577599,139.399999
0000004715,"",世田谷玉川２丁目店,東京都世田谷区玉川２－１４－５,35.609687,139.632913
0000004716,"",熱海咲見町店,静岡県熱海市咲見町１０ー３,35.097299,139.078127
0000004717,"",東大阪足代新町店,大阪府東大阪市足代新町２４ー２０,34.66232,135.560304
0000004718,"",若宮脇田店,福岡県宮若市脇田２３２－１,33.696642,130.594684
0000004720,"",上川比布町店,北海道上川郡比布町基線７号,43.867988,142.488488
0000004721,"",砂川東１条店,北海道砂川市東１条北４丁目１番７号,43.493111,141.912427
0000004722,"",登別東町店,北海道登別市登別東町４ー２７ー３,42.453366,141.180313
0000004723,"",大月鳥沢店,山梨県大月市富浜町鳥沢１８７１ー１,35.605754,139.004566
0000004724,"",秦野菩提店,神奈川県秦野市菩提字北原１５４ー１,35.389127,139.204227
0000004725,"",茂原高師店,千葉県茂原市高師２６８ー２,35.431312,140.30291
0000004726,"",岡山東中央町店,岡山県岡山市北区東中央町５－２１,34.651368,133.929121
0000004728,"",春日部新方袋店,埼玉県春日部市西八木崎１丁目３番１号,35.971827,139.742983
0000004729,"",函館南桔梗店,北海道函館市桔梗２丁目１９番６号,41.836508,140.730683
0000004731,"",水戸城南店,茨城県水戸市城南１ー８ー１５,36.362141,140.477458
0000004732,"",岩間泉店,茨城県笠間市泉１５９６－４,36.281107,140.277819
0000004733,"",宇都宮森林公園入口店,栃木県宇都宮市田野町字下河原７７２－２,36.592635,139.803855
0000004734,"",熊谷大原店,埼玉県熊谷市大原１丁目１ー３４,36.14948,139.384461
0000004735,"",荒川５丁目店,東京都荒川区荒川５ー１１ー１３,35.735801,139.780927
0000004736,"",世田谷瀬田４丁目店,東京都世田谷区瀬田４ー２４ー１２,35.618049,139.633821
0000004737,"",防府大道店,山口県防府市大字台道１０２４,34.05949,131.491809
0000004738,"",福島山口店,福島県福島市山口字雷４ー１,37.767988,140.513279
0000004739,"",札幌東栄中央店,北海道札幌市白石区米里４条１丁目６番２０,43.081527,141.430132
0000004740,"",新宿大久保駅前店,東京都新宿区百人町２ー２１ー３,35.69864,139.70051
0000004741,"",坂下宮古店,福島県河沼郡会津坂下町大字宮古村西３４－１,37.554999,139.850677
0000004742,"",西浅井塩津店,滋賀県長浜市西浅井町祝山６４６,35.520604,136.164798
0000004743,"",静岡唐瀬１丁目店,静岡県静岡市葵区唐瀬１－２－１７,35.004891,138.387724
0000004745,"",川崎枡形２丁目店,神奈川県川崎市多摩区枡形２ー１８ー５,35.616271,139.55808
0000004747,"",郡山大槻太田店,福島県郡山市大槻町字太田７４－１,37.371641,140.33068
0000004749,"",笠懸久宮店,群馬県みどり市笠懸町鹿４８３４－６,36.378896,139.28878
0000004750,"",佐野工業団地店,栃木県佐野市浅沼町６３０ー３,36.302323,139.596663
0000004751,"",糸魚川中央店,新潟県糸魚川市中央２ー２ー１５,37.037096,137.863796
0000004752,"",信州中条村店,長野県長野市中条住良木１０３６,36.602079,138.022644
0000004753,"",江東亀戸２丁目店,東京都江東区亀戸２ー１７ー１４,35.694671,139.82663
0000004754,"",吉祥寺本町３丁目店,東京都武蔵野市吉祥寺本町３ー２ー８,35.701577,139.576905
0000004755,"",高岡花見店,宮崎県宮崎市高岡町花見字橋山２０７４－１,31.941859,131.327854
0000004757,"",茨城東西代店,茨城県稲敷市西代１５８１－１,35.921688,140.485666
0000004758,"",宇都宮鶴田三の沢店,栃木県宇都宮市鶴田町２１２６ー１,36.561421,139.857446
0000004759,"",松伏下赤岩店,埼玉県北葛飾郡松伏町大字下赤岩２０４ー１２,35.903727,139.841007
0000004760,"",秩父阿保町店,埼玉県秩父市阿保町６ー４５,36.011757,139.089382
0000004761,"",安房富山高崎店,千葉県南房総市高崎１２０２－１,35.084748,139.849989
0000004762,"",岩瀬富谷店,茨城県桜川市富谷１６０７－１,36.36839,140.104371
0000004763,"",豊野蟹沢店,長野県長野市豊野町蟹沢２５５９,36.721124,138.307521
0000004764,"",中越大和北里通り店,新潟県南魚沼市黒土新田４３５－１,37.148149,138.967185
0000004765,"",坂北聖南店,長野県東筑摩郡筑北村坂北４７７７－１,36.413382,138.011679
0000004766,"",館林高根町店,群馬県館林市高根町３４１,36.261349,139.522269
0000004767,"",川越仙波町２丁目店,埼玉県川越市仙波町２ー１ー５,35.906171,139.491855
0000004769,"",横浜太田町３丁目店,神奈川県横浜市中区太田町３ー３６,35.443884,139.641347
0000004770,"",港区芝３丁目店,東京都港区芝３丁目１５－９,35.649856,139.748632
0000004771,"",青梅日立前店,東京都青梅市新町７ー６３ー３,35.785832,139.320446
0000004772,"",旭川末広３条店,旭川市末広三条１２ー７ー１４,43.816164,142.400384
0000004773,"",北斗久根別店,北海道北斗市久根別１－２３－１５,41.822841,140.679487
0000004774,"",富津更和店,千葉県富津市更和８３ー２,35.215193,139.892777
0000004776,"",京成佐倉駅前店,千葉県佐倉市栄町１６－１,35.721548,140.233343
0000004777,"",草加青柳中央店,埼玉県草加市青柳６ー３９ー９,35.848127,139.825422
0000004778,"",北茨城大津港駅前店,茨城県北茨城市大津町北町２ー２ー３,36.843571,140.782213
0000004779,"",釧路川上町店,北海道釧路市川上町６丁目１,42.983019,144.392657
0000004781,"",台東蔵前３丁目店,東京都台東区蔵前３丁目１３番１２号,35.701499,139.795455
0000004782,"",武蔵野西久保２丁目店,東京都武蔵野市西久保２ー２６ー９,35.706065,139.559378
0000004783,"",尼崎南塚口２丁目店,兵庫県尼崎市南塚口町２丁目３９ー１５,34.745071,135.420055
0000004784,"",郡山南インター店,福島県郡山市三穂田町川田２丁目１９９ー４,37.360102,140.323677
0000004785,"",中野新井薬師前駅北店,東京都中野区松が丘１ー１７ー１０,35.714963,139.67605
0000004786,"",富士見市水谷東２丁目店,埼玉県富士見市水谷東２ー３９ー８,35.83721,139.578024
0000004787,"",西川越小室店,埼玉県川越市小室５６３ー１,35.915304,139.46373
0000004788,"",高根沢仁井田店,栃木県塩谷郡高根沢町平田１９０５ー１,36.648696,140.031883
0000004789,"",戸倉内川店,長野県千曲市内川８２３－１,36.503915,138.137813
0000004790,"",南浦和駅西口店,埼玉県さいたま市南区南本町１－２－７,35.843137,139.672561
0000004791,"",日高女影店,埼玉県日高市女影１７１４ー１,35.894059,139.364377
0000004792,"",成東本須賀店,千葉県山武市本須賀４５６７－１,35.561869,140.456947
0000004794,"",横島外平店,熊本県玉名市横島町横島１７０５－１,32.876223,130.557632
0000004795,"",筑紫野岡田店,福岡県筑紫野市岡田２丁目４６ー１,33.4695,130.562299
0000004796,"",倉敷中畝１０丁目店,岡山県倉敷市中畝１０ー４ー４５,34.530351,133.753809
0000004797,"",延岡大貫町３丁目店,宮崎県延岡市大貫町３丁目３０４７ー４,32.574087,131.661387
0000004798,"",佐野朱雀町店,栃木県佐野市堀米町３９４６－１２,36.32381,139.579374
0000004799,"",桐生相生５丁目店,群馬県桐生市相生町５丁目２０８６ー２,36.412707,139.295114
0000004801,"",大仁田京店,静岡県伊豆の国市田京３９－３,35.005843,138.951954
0000004802,"",甲子園浦風町店,兵庫県西宮市甲子園浦風町４ー１,34.723793,135.363421
0000004803,"",大阪東三国駅北口店,大阪府大阪市淀川区東三国５ー１ー４,34.738634,135.500362
0000004804,"",北見北進町店,北海道北見市北進町３丁目１３番６号,43.80208,143.876416
0000004805,"",いわき中岡３丁目店,福島県いわき市中岡町３ー１ー２,36.921899,140.784563
0000004806,"",渋谷本町２丁目店,東京都渋谷区本町２ー１２ー３,35.679982,139.684752
0000004807,"",江戸川中葛西１丁目店,東京都江戸川区中葛西１ー１２ー１６,35.66859,139.870879
0000004808,"",大竹立戸店,広島県大竹市立戸１ー３－１,34.219157,132.223402
0000004809,"",福山手城町３丁目店,広島県福山市手城町３丁目１４－８,34.483281,133.394799
0000004811,"",臼田田口店,長野県佐久市田口６２８９－１,36.201898,138.490449
0000004812,"",粕川中店,群馬県前橋市粕川町中３２４－６,36.414132,139.222911
0000004813,"",新潟泰平橋店,新潟県新潟市東区中興野１番６号,37.91864,139.13786
0000004815,"",千葉土気駅前店,千葉県千葉市緑区あすみが丘１－１９－８,35.525866,140.273522
0000004816,"",茨城旭村店,茨城県鉾田市樅山６０４－６５,36.198923,140.552677
0000004817,"",上福岡駒林店,埼玉県ふじみ野市駒林８７９－３,35.866579,139.538427
0000004818,"",会津小田橋店,福島県会津若松市北青木１番１５号,37.479199,139.940902
0000004819,"",八街夕日ケ丘店,千葉県八街市八街い１９３ー９７,35.652407,140.298272
0000004821,"",福岡野芥２丁目店,福岡県福岡市早良区野芥２ー８ー５,33.541704,130.34834
0000004822,"",遠州吉田町片岡店,静岡県榛原郡吉田町片岡１５０８ー３,34.759015,138.265102
0000004823,"",下館外塚店,茨城県筑西市外塚６６４,36.303501,139.966122
0000004825,"",大川郷原店,福岡県大川市大字郷原３１６,33.205843,130.391006
0000004826,"",飯山常盤大橋店,長野県飯山市常盤３５７１ー１,36.895563,138.400346
0000004827,"",横浜杉田４丁目店,神奈川県横浜市磯子区杉田４ー３ー２,35.380374,139.623819
0000004828,"",大田区西糀谷３丁目店,東京都大田区西糀谷３ー４３ー１,35.549683,139.738806
0000004829,"",喜多方バイパス店,喜多方市関柴町上高額割田１６６８ー６,37.638682,139.891555
0000004830,"",真備川辺店,岡山県倉敷市真備町川辺１４８－１,34.639403,133.71978
0000004831,"",新座東北２丁目店,埼玉県新座市東北２ー２９ー１,35.817438,139.575257
0000004832,"",竜ケ崎半田町店,茨城県龍ケ崎市半田町前田１８２７－１,35.918751,140.240144
0000004833,"",佐久中込店,長野県佐久市大字中込字大日３７１３－１８,36.248835,138.47025
0000004834,"",信州富士見役場上店,長野県諏訪郡富士見町落合１１０４８－５８,35.91231,138.24518
0000004835,"",結城今宿店,茨城県結城市大字今宿１３０６ー２,36.227373,139.875272
0000004836,"",鴨川太海店,千葉県鴨川市太海９２０,35.083377,140.095694
0000004837,"",横須賀追浜町店,神奈川県横須賀市追浜町２ー１４,35.310329,139.628586
0000004838,"",日立南高野町店,茨城県日立市南高野町１ー９ー４３,36.498949,140.608682
0000004840,"",大津大将軍店,滋賀県大津市大将軍１丁目１４ー１２,34.98881,135.929305
0000004841,"",柳川西浜武店,福岡県柳川市西浜武１０２３－１,33.168478,130.387301
0000004843,"",横浜大豆戸町店,神奈川県横浜市港北区大豆戸町８７２ー１,35.51543,139.626483
0000004845,"",須坂塩川町店,長野県須坂市小山蒔田２５５８ー３,36.651854,138.296199
0000004846,"",宇都宮双葉店,栃木県宇都宮市双葉２－１－３,36.525346,139.864852
0000004847,"",札幌医大前店,札幌市中央区南１条西１６丁目１ー２４９,43.054311,141.336034
0000004848,"",岩舟曲ケ島店,栃木県栃木市岩舟町曲ケ島２０１６－１,36.301251,139.69318
0000004849,"",安中磯部４丁目店,群馬県安中市磯部４丁目５番７号,36.301235,138.864766
0000004850,"",横芝北清水店,千葉県山武郡横芝光町北清水１３９０－１,35.629277,140.507375
0000004851,"",千葉青葉の森公園店,千葉県千葉市中央区青葉町１２５９,35.592157,140.138688
0000004852,"",川崎山王町１丁目店,神奈川県川崎市中原区上丸子山王町１－８６５－１,35.574976,139.668331
0000004853,"",神戸鈴蘭台南町店,兵庫県神戸市北区鈴蘭台南町５ー１ー６,34.718704,135.142658
0000004854,"",倉敷商業高校西店,岡山県倉敷市白楽町５５６ー２６,34.585573,133.770259
0000004855,"",佐賀商業高校前店,佐賀県佐賀市神野東４丁目１２ー３３,33.266667,130.298362
0000004856,"",千葉白子店,千葉県長生郡白子町中里４４８２ー４,35.429904,140.398082
0000004857,"",矢祭中石井店,東白川郡矢祭町中石井字岡下１４９ー１,36.906127,140.420552
0000004858,"",会津湯川浜崎店,福島県河沼郡湯川村浜崎水上１４１３ー２,37.583221,139.895866
0000004859,"",足利八幡町店,栃木県足利市八幡町２ー１８ー３,36.319579,139.439285
0000004860,"",信州青木村店,長野県小県郡青木村大字村松字大沖沢１５３ー１,36.367404,138.137486
0000004861,"",川口榛松店,埼玉県川口市榛松２－３０－２２,35.82101,139.779511
0000004862,"",掛川中方店,静岡県掛川市中方６０４－１,34.712732,138.058518
0000004863,"",江東東砂８丁目店,東京都江東区東砂８ー１９ー９,35.664941,139.844249
0000004864,"",甲斐大泉西井出店,山梨県北杜市大泉町西井出８２４０－２２４０,35.883798,138.414785
0000004865,"",高槻大冠町店,大阪府高槻市大冠町３－１－１,34.831665,135.638607
0000004866,"",神林牧目店,新潟県村上市牧目１２７２－１,38.174616,139.446977
0000004867,"",帯広西２１南５丁目店,北海道帯広市西２１条南５丁目１８番１６号,42.901719,143.149616
0000004868,"",村田インター店,宮城県柴田郡村田町村田北塩内８７ー５,38.116829,140.720613
0000004869,"",結城小田林北店,茨城県結城市大字五助２４２８ー１,36.301982,139.857482
0000004871,"",白井根店,千葉県白井市根４３８,35.778918,140.048305
0000004872,"",千葉幸町２丁目店,千葉県千葉市美浜区幸町２ー２４ー４３,35.616682,140.099114
0000004873,"",築地７丁目店,東京都中央区築地７－８－１０,35.662957,139.777855
0000004874,"",台東谷中７丁目店,東京都台東区谷中７ー２０ー７,35.724493,139.772485
0000004875,"",西巣鴨駅前店,東京都豊島区西巣鴨４ー１３－６,35.741132,139.731779
0000004876,"",静岡東新田２丁目店,静岡県静岡市駿河区東新田２丁目１５－２３,34.943213,138.376705
0000004877,"",大阪浜３丁目店,大阪府大阪市鶴見区浜３丁目１番１２号,34.702045,135.586885
0000004879,"",尼崎昭和通７丁目店,兵庫県尼崎市昭和通７丁目２４１ー３,34.719548,135.411452
0000004880,"",えびのインター店,宮崎県えびの市永山字中棚１０３０ー１,32.046936,130.808671
0000004881,"",佐賀鍋島町店,佐賀県佐賀市鍋島町大字森田字三本椎５０４ー１０,33.269678,130.263006
0000004882,"",宮崎柳丸町店,宮崎県宮崎市柳丸町３９０ー１１,31.921634,131.434046
0000004884,"",裏磐梯店,耶麻郡北塩原村桧原剣ケ峯１０９３ー４０１,37.657337,140.086011
0000004885,"",中野市吉田店,長野県中野市吉田２８０ー２,36.742188,138.354974
0000004886,"",流山江戸川台東店,千葉県流山市江戸川台東２ー２３,35.895393,139.914035
0000004888,"",板橋大原町店,東京都板橋区大原町１１－１４,35.768149,139.703016
0000004890,"",喜多方鳥見山店,福島県喜多方市松山町鳥見山字松原１５８－１,37.699018,139.878816
0000004891,"",茂原本小轡店,千葉県茂原市本小轡１３５４ー３,35.445254,140.327622
0000004894,"",佐久駒場公園前店,長野県佐久市大字猿久保２４４ー１,36.253995,138.486177
0000004895,"",東川口４丁目店,埼玉県川口市東川口４－１ー２３,35.875243,139.745741
0000004896,"",日立河原子海岸入口店,茨城県日立市河原子町４－１－１４,36.543841,140.643358
0000004897,"",南河内緑店,栃木県下野市緑１丁目４番２,36.384171,139.8575
0000004898,"",広島横川駅北口店,広島県広島市西区三篠町１ー１２ー１３,34.407473,132.454259
0000004899,"",二丈深江店,福岡県糸島市二丈深江７丁目３０番２４号,33.510906,130.140271
0000004900,"",藤沢片瀬５丁目店,神奈川県藤沢市片瀬５－１１－６,35.314293,139.488597
0000004901,"",武蔵小金井本町２丁目店,東京都小金井市本町２ー６ー１２,35.700419,139.511013
0000004902,"",池袋西一番街店,東京都豊島区西池袋１ー４１ー１,35.729546,139.713689
0000004903,"",品川駅前店,東京都港区高輪３－２５－２０,35.627049,139.741027
0000004904,"",八幡上ノ原店,福岡県北九州市八幡西区上ノ原１－８－１,33.831717,130.760188
0000004905,"",足利島田町店,栃木県足利市島田町５６０ー４,36.297521,139.454962
0000004906,"",二本松高田橋店,福島県二本松市平石高田１－１３８－１,37.579379,140.458152
0000004908,"",佐賀若宮２丁目店,佐賀県佐賀市若宮２ー１５ー２５,33.267428,130.288729
0000004909,"",磐田堀之内店,静岡県磐田市堀之内１７５７－１,34.683182,137.812735
0000004910,"",神栖知手中央店,茨城県神栖市知手中央１０－８－１１,35.877724,140.701402
0000004912,"",中標津緑町店,北海道標津郡中標津町緑町北１丁目８－７,43.532174,144.958708
0000004913,"",岡山植松店,岡山県岡山市南区植松５８０－１,34.546076,133.828668
0000004914,"",入間宮ノ台店,埼玉県入間市宮寺３２８２ー１,35.800521,139.373944
0000004916,"",田布施波野店,山口県熊毛郡田布施町波野２１９１ー１５,33.95649,132.058337
0000004918,"",渋川八木原店,群馬県渋川市八木原６３８ー２,36.460054,139.015643
0000004919,"",栗源岩部店,千葉県香取市岩部８７４－２,35.813757,140.523349
0000004920,"",渋谷東３丁目店,東京都渋谷区東３ー１５ー４,35.64754,139.712333
0000004922,"",福島伊達町店,福島県伊達市北後９－６,37.81809,140.501949
0000004923,"",壬生国谷店,栃木県下都賀郡壬生町壬生丁六美１３３－２,36.445182,139.822919
0000004924,"",四街道鷹の台店,千葉県四街道市鷹の台１ー１２１５,35.631662,140.201744
0000004925,"",京成津田沼駅前店,千葉県習志野市津田沼３ー６ー３８,35.680884,140.026963
0000004926,"",南幌元町店,北海道空知郡南幌町元町２丁目１番４号,43.067578,141.657021
0000004927,"",福島清水町店,福島県福島市清水町字北谷地２４ー８,37.70699,140.471488
0000004928,"",台東日本堤２丁目店,東京都台東区日本堤２ー２９ー１３,35.725591,139.802572
0000004929,"",室蘭白鳥台店,北海道室蘭市白鳥台４丁目２０ー１,42.377508,140.947557
0000004930,"",阪急夙川駅南口店,兵庫県西宮市羽衣町５－３２,34.738348,135.329107
0000004931,"",倉敷浜町２丁目店,岡山県倉敷市浜町２ー１５ー２２,34.606751,133.776277
0000004932,"",倶知安役場前店,北海道虻田郡倶知安町南１条東３丁目３番地,42.898519,140.762432
0000004933,"",川崎京王稲田堤北口店,神奈川県川崎市多摩区菅５ー１ー１,35.631721,139.536057
0000004934,"",八街朝日店,千葉県八街市朝日５９２ー３,35.668777,140.34303
0000004935,"",仙台小田原八丁目店,宮城県仙台市青葉区小田原８丁目１０番１０号,38.266404,140.896891
0000004937,"",新冠北星町店,北海道新冠郡新冠町字北星町２ー８６,42.357652,142.320201
0000004938,"",大井町東久保店,埼玉県ふじみ野市ふじみ野１丁目５番２号,35.854121,139.518499
0000004939,"",上田御所店,長野県上田市大字御所字中満丁２８３ー１,36.384229,138.238463
0000004940,"",十王友部店,茨城県日立市十王町友部１６２４－７,36.672901,140.688039
0000004941,"",大宮ソニックシティ前店,埼玉県さいたま市大宮区桜木町１－１１－２,35.901057,139.622388
0000004942,"",小倉中津口店,北九州市小倉北区宇佐町１ー３ー４８,33.874972,130.890976
0000004943,"",宮田新田店,長野県上伊那郡宮田村１７５９,35.750143,137.921414
0000004944,"",館林多々良沼店,群馬県館林市北成島町２８９６－１,36.251868,139.509736
0000004945,"",門司原町別院店,福岡県北九州市門司区原町別院４ー１,33.895292,130.930901
0000004946,"",東五反田２丁目店,東京都品川区東五反田２ー１９ー７,35.621766,139.733227
0000004947,"",川崎鷺沼駅前店,神奈川県川崎市宮前区鷺沼３－２－１,35.57654,139.575741
0000004948,"",越谷恩間新田店,埼玉県越谷市恩間新田４２３ー１,35.934865,139.765519
0000004949,"",帯広西５条通店,北海道帯広市西５条南２７丁目２番地,42.898528,143.204346
0000004951,"",吹上鎌塚店,埼玉県鴻巣市鎌塚１４１,36.105713,139.460313
0000004952,"",墨田吾妻橋３丁目店,東京都墨田区吾妻橋３ー３ー２,35.705246,139.810208
0000004953,"",新潟幸栄店,新潟県新潟市東区幸栄３－１０－１７,37.942802,139.110899
0000004954,"",豊中曽根東町店,大阪府豊中市曽根東町１－１０－３,34.768509,135.472029
0000004955,"",神戸須磨行幸町店,兵庫県神戸市須磨区行幸町３－５－１７,34.644023,135.122435
0000004956,"",静岡常磐３丁目店,静岡県静岡市葵区常磐町３－５－９,34.965965,138.383557
0000004957,"",木之本インター口店,滋賀県長浜市木之本町黒田１０８５－２,35.499698,136.217351
0000004958,"",鹿嶋旭ケ丘店,茨城県鹿嶋市平井１３２５－７,35.96171,140.657902
0000004959,"",協和蓮沼店,茨城県筑西市蓮沼１６０８－４２,36.31521,140.02233
0000004960,"",寒河江日田店,山形県寒河江市大字日田字五反２０９ー２,38.369882,140.300716
0000004961,"",船橋印内町店,千葉県船橋市印内町６３８ー１,35.702252,139.962194
0000004962,"",水戸メディカルセンター前店,茨城県水戸市笠原町２４５ー１,36.348493,140.462353
0000004963,"",東松山六軒町店,埼玉県東松山市六軒町６ー８,36.028846,139.417993
0000004964,"",寿店,長野県松本市寿中１－３７－１,36.179335,137.972144
0000004966,"",高槻富田５丁目店,大阪府高槻市富田町５－１－１４,34.829662,135.597937
0000004968,"",土浦西根店,茨城県土浦市中村西根１９９０ー９,36.04243,140.157572
0000004969,"",大阪瑞光１丁目店,大阪府大阪市東淀川区瑞光１ー４ー２８,34.744309,135.536843
0000004970,"",園部城南町店,京都府南丹市園部町城南町岸ヶ前６３－４,35.097235,135.472204
0000004971,"",郡山西田町店,福島県郡山市西田町三町目字仁王ケ作３９－１,37.444204,140.431244
0000004972,"",木更津国立工専前店,千葉県木更津市清見台南４－１－３,35.378891,139.95768
0000004973,"",米沢工業高校前店,山形県米沢市大字川井字上谷地２１９,37.917157,140.149444
0000004975,"",小倉企救丘２丁目店,福岡県北九州市小倉南区企救丘２ー１４－２７,33.817975,130.880445
0000004978,"",薮塚運動公園前店,群馬県太田市大原町２５６－９,36.348369,139.299191
0000004979,"",岩見沢中央通り店,北海道岩見沢市７条西１丁目６番地１,43.19828,141.772658
0000004980,"",長野東寺尾店,長野県長野市松代町東寺尾２７９８－３,36.582668,138.202835
0000004981,"",上越下稲塚店,新潟県上越市下稲塚６３ー１,37.081366,138.31658
0000004982,"",札幌南４条西７丁目店,北海道札幌市中央区南４条西７丁目１番地,43.051983,141.352263
0000004983,"",別海宮舞店,北海道野付郡別海町別海宮舞町１１番地,43.392283,145.128152
0000004984,"",神戸三宮旭通店,兵庫県神戸市中央区旭通１丁目１ー１,34.694504,135.20344
0000004985,"",会津広田店,福島県会津若松市河東町郡山字金道２５,37.550974,139.928619
0000004986,"",いわき四倉インター店,福島県いわき市四倉町白岩上大作８－１,37.125988,140.957025
0000004987,"",市原五井市役所通り店,千葉県市原市五井５９２１ー１,35.52484,140.09096
0000004988,"",新松戸４丁目店,千葉県松戸市新松戸４－４４－１,35.822968,139.920563
0000004989,"",米沢市役所前店,山形県米沢市金池５－３ー１１,37.919007,140.11833
0000004990,"",戸倉若宮店,長野県千曲市若宮１１０７－１,36.490021,138.128922
0000004991,"",東大阪東山町店,大阪府東大阪市東山町１４－２,34.675779,135.647299
0000004992,"",和寒町店,北海道上川郡和寒町日の出１１ー３,44.028861,142.414782
0000004993,"",小作駅東口店,東京都羽村市小作台１ー１３ー１,35.773512,139.305761
0000004994,"",下関岬之町店,山口県下関市岬之町９－１０,33.949323,130.937898
0000004995,"",三次塩町店,広島県三次市志幸町３１ー４,34.767459,132.92623
0000004996,"",水戸城東店,茨城県水戸市城東１ー２ー３８,36.36596,140.49128
0000004997,"",札幌篠路７条店,北海道札幌市北区篠路７条５丁目１－１２,43.14996,141.36441
0000004998,"",小牛田バイパス店,宮城県遠田郡美里町牛飼字八反１２９－１,38.550141,141.052911
0000004999,"",高萩高浜町３丁目店,茨城県高萩市高浜町３ー７３,36.700023,140.7204
0000005000,"",高梁横町店,岡山県高梁市横町１０７８ー１,34.781159,133.613252
0000005001,"",玉野和田５丁目店,岡山県玉野市和田５ー１７ー２４,34.466407,133.922221
0000005002,"",玖珂インター店,山口県岩国市玖珂町４７７１－１,34.078609,132.083565
0000005003,"",石巻河南インター店,宮城県石巻市蛇田字新埣寺１７１ー１,38.440265,141.279188
0000005004,"",西宮マリナパーク店,兵庫県西宮市西宮浜２ー３２ー４,34.710404,135.335749
0000005005,"",札幌川沿２条店,北海道札幌市南区川沿２条３丁目８－１,42.997327,141.333835
0000005006,"",裾野平松店,静岡県裾野市平松５９３－３,35.164551,138.909808
0000005007,"",東札幌５条店,北海道札幌市白石区東札幌５条２丁目１ー２８,43.052347,141.390579
0000005008,"",越谷駅東口店,埼玉県越谷市弥生町１ー１４,35.88481,139.790382
0000005009,"",市川堀之内店,千葉県市川市堀之内３－２５－１３,35.760362,139.91621
0000005010,"",総社大橋東店,岡山県総社市真壁１１４４－４,34.671048,133.73364
0000005011,"",渋谷東４丁目店,東京都渋谷区東４－８－１,35.652321,139.7168
0000005012,"",前原三坂店,福岡県糸島市三坂３９８－１０,33.516795,130.226107
0000005013,"",南郷駅東店,宮崎県日南市南郷町大字中村乙２００１－２,31.534523,131.379099
0000005014,"",船橋本中山３丁目店,千葉県船橋市本中山３ー２４ー１７,35.710552,139.944343
0000005015,"",東習志野６丁目店,千葉県習志野市東習志野６－１５－２１,35.698468,140.06581
0000005016,"",墨田太平３丁目店,東京都墨田区太平３－２０－７,35.699468,139.817577
0000005017,"",福島船引田村富士店,福島県田村市船引町春山上ノ台４３－１,37.436244,140.558791
0000005018,"",恵庭インター店,北海道恵庭市美咲野４丁目１－１,42.87493,141.571013
0000005019,"",五泉論瀬店,新潟県五泉市論瀬５７８６,37.745762,139.213618
0000005020,"",くびき工業団地店,新潟県上越市頸城区上吉１９４番地６,37.181368,138.288219
0000005021,"",豊科合同庁舎前店,長野県安曇野市豊科４９２１－１,36.299066,137.903549
0000005023,"",旭川神楽１０丁目店,北海道旭川市神楽４条１０丁目５番７号,43.751964,142.358162
0000005024,"",鹿島神宮駅北店,茨城県鹿嶋市緑ケ丘４丁目７番地１,35.972607,140.626753
0000005025,"",川崎ガス橋通り店,神奈川県川崎市中原区上平間１９０ー２３,35.557935,139.678544
0000005026,"",上越子安店,新潟県上越市子安１５２０,37.102943,138.281591
0000005027,"",草津矢倉２丁目店,滋賀県草津市矢倉２ー６ー１８,35.001576,135.955377
0000005028,"",尼崎食満７丁目店,兵庫県尼崎市食満７丁目８ー９,34.754604,135.43539
0000005030,"",友部旭町西原店,茨城県笠間市旭町１９１－３７,36.316541,140.328783
0000005031,"",広島じぞう通り店,広島県広島市中区富士見町１３番１１号,34.383309,132.462487
0000005032,"",台東上野２丁目店,東京都台東区上野２ー１１ー１０,35.705718,139.773261
0000005033,"",調布上石原３丁目店,東京都調布市上石原３－１０－１７,35.649279,139.530927
0000005034,"",大田区東六郷３丁目店,東京都大田区東六郷３－６－３,35.542571,139.716527
0000005035,"",竜ケ崎小柴店,茨城県龍ケ崎市小柴５ー２－１,35.930271,140.161827
0000005036,"",札幌菊水元町７条店,札幌市白石区菊水元町７条１丁目１０－１０,43.071122,141.413729
0000005039,"",塩尻広丘野村店,長野県塩尻市広丘野村２２２９,36.144924,137.96021
0000005041,"",千代川唐崎店,茨城県下妻市唐崎８８５,36.150791,139.979379
0000005043,"",富岡インター店,群馬県富岡市下高瀬４００－３,36.242976,138.895621
0000005044,"",茂原南吉田店,千葉県茂原市南吉田２９８０,35.465657,140.340594
0000005045,"",芝山小池店,千葉県山武郡芝山町小池９３２ー１,35.690235,140.415405
0000005046,"",千葉瑞穂の杜店,千葉県千葉市花見川区瑞穂３丁目１－３,35.657584,140.075746
0000005047,"",文京白山駅前店,東京都文京区白山５ー３６ー１１,35.717185,139.754922
0000005048,"",目黒本町２丁目店,東京都目黒区目黒本町２ー１７ー１９,35.62276,139.693805
0000005049,"",井の頭公園駅前店,東京都三鷹市井の頭３ー１２ー１１,35.694127,139.585796
0000005050,"",白根戸頭店,新潟県新潟市南区戸頭１３１１－１,37.753118,139.020094
0000005052,"",南吹田３丁目店,大阪府吹田市南吹田３ー８ー２１,34.747526,135.508999
0000005053,"",高槻八丁西町店,大阪府高槻市八丁西町８ー２７,34.850443,135.628766
0000005054,"",熊本大津室店,熊本県菊池郡大津町室１７２３ー１,32.88342,130.857129
0000005055,"",仙台山田上ノ台町店,宮城県仙台市太白区山田上ノ台町１３－２８,38.214788,140.837235
0000005056,"",上山河崎店,山形県上山市河崎３丁目６番８号,38.148277,140.268744
0000005057,"",川崎本町２丁目店,神奈川県川崎市川崎区本町２－１２－７,35.531784,139.710428
0000005058,"",上山矢来店,山形県上山市矢来４丁目９番１号,38.144407,140.281452
0000005059,"",上山蔵王の森店,山形県上山市蔵王の森８番１号,38.160449,140.308516
0000005060,"",山方町山方南店,茨城県常陸大宮市山方１１８５－１,36.613487,140.404358
0000005062,"",京都西大路松原店,京都府京都市右京区西院高田町１３,34.995179,135.734588
0000005063,"",酒田宮野浦店,山形県酒田市高見台２丁目２１番地８,38.896099,139.821763
0000005064,"",苫小牧元中野店,北海道苫小牧市元中野町３丁目８－１７,42.637311,141.617557
0000005065,"",倉敷玉島インター店,岡山県倉敷市玉島長尾３２７０－１,34.574699,133.684851
0000005066,"",長野今里店,長野県長野市川中島町今里長面１２７５－１１,36.597735,138.145304
0000005067,"",鹿部町店,北海道茅部郡鹿部町字鹿部６５,42.027964,140.828276
0000005068,"",小千谷大橋店,新潟県小千谷市大字三仏生字上林３５８４－２,37.328388,138.816374
0000005069,"",函館人見町店,北海道函館市人見町５－２４,41.781899,140.761851
0000005071,"",北品川３丁目店,東京都品川区北品川３－７－２２,35.614177,139.743808
0000005072,"",八幡則松６丁目店,福岡県北九州市八幡西区則松６ー３－１３,33.850484,130.723324
0000005073,"",相武台駅前店,神奈川県相模原市南区相武台１－２４－１６,35.497023,139.410374
0000005074,"",練馬石神井５丁目店,東京都練馬区石神井町５－１－１４,35.73676,139.611552
0000005075,"",穂高富田店,長野県安曇野市穂高有明９９９７－１,36.343807,137.865061
0000005076,"",郡山美術館東店,福島県郡山市蒲倉町字広表１１８－７,37.388419,140.432849
0000005077,"",函館西桔梗町店,北海道函館市西桔梗町８４９－１６,41.820824,140.724357
0000005078,"",勝山大久保店,福岡県京都郡みやこ町勝山大久保２４５０－１,33.688679,130.927624
0000005079,"",長野若穂綿内店,長野県長野市若穂綿内８８０５－８,36.625579,138.263641
0000005080,"",江戸川西葛西７丁目店,東京都江戸川区西葛西７－１５－１５,35.655518,139.863652
0000005081,"",足利葉鹿１丁目店,栃木県足利市葉鹿町１丁目２８－１,36.359538,139.396377
0000005084,"",会津東山店,会津若松市東山町石山字天寧３４７ー１,37.484909,139.952596
0000005085,"",新宿２丁目店,東京都新宿区新宿２ー３ー１１,35.685949,139.7111
0000005086,"",北赤羽駅浮間口店,東京都北区浮間３－２－１６,35.78446,139.707391
0000005087,"",富士宮若の宮店,静岡県富士宮市若の宮３７９,35.227787,138.622036
0000005088,"",堺北花田店,大阪府堺市北区東浅香山町４丁６,34.579937,135.518896
0000005089,"",仙台高砂市民センター前店,宮城県仙台市宮城野区中野１丁目５番地１,38.267635,140.978225
0000005090,"",倉敷堀南店,岡山県倉敷市堀南８５２－１,34.566093,133.759329
0000005091,"",蓮田江ヶ崎店,埼玉県蓮田市江ヶ崎１１５４－１,35.992574,139.690221
0000005092,"",いわき平窪店,福島県いわき市平下平窪字味噌農６－３,37.07283,140.884488
0000005093,"",上目黒２丁目店,東京都目黒区上目黒２－１－３,35.639896,139.701949
0000005094,"",文京本郷４丁目店,東京都文京区本郷４－３－４,35.704432,139.7622
0000005095,"",世田谷赤堤２丁目店,東京都世田谷区赤堤２－３－８,35.653466,139.650769
0000005096,"",東大阪永和１丁目店,大阪府東大阪市永和１－２２－２０,34.655648,135.575926
0000005097,"",勝浦２９７号バイパス南店,千葉県勝浦市宿戸字西宿戸３９５－１,35.183652,140.295219
0000005098,"",八王子元本郷町店,東京都八王子市元本郷町１－２３－１,35.66151,139.324258
0000005099,"",川崎国際病院前店,神奈川県川崎市川崎区日ノ出２－１６－１,35.529857,139.748644
0000005100,"",東藻琴店,北海道網走郡大空町東藻琴４９－１６,43.840863,144.29226
0000005101,"",阪南市役所前店,大阪府阪南市黒田５９２－３,34.356565,135.241532
0000005102,"",燕佐渡店,新潟県燕市佐渡４５０－１,37.661346,138.950611
0000005104,"",沼津駅前店,静岡県沼津市大手町２丁目１－１,35.098746,138.864557
0000005105,"",杉並堀ノ内２丁目店,東京都杉並区堀ノ内２－１３－１１,35.685615,139.658147
0000005106,"",明石貴崎３丁目店,兵庫県明石市貴崎３丁目１６－１,34.651362,134.96768
0000005107,"",札幌厚別中央５条店,北海道札幌市厚別区厚別中央５条３丁目１番,43.041444,141.466633
0000005108,"",宇都宮平出工業団地店,栃木県宇都宮市平出町３６５５ー６,36.578862,139.938761
0000005109,"",豊島南池袋２の東店,東京都豊島区南池袋２－３２－１３,35.723107,139.718661
0000005110,"",文京本駒込４丁目店,東京都文京区本駒込４－４０－３,35.72899,139.76118
0000005111,"",川崎新丸子駅前店,神奈川県川崎市中原区新丸子町７３９－３,35.577332,139.664616
0000005112,"",横浜日吉１丁目店,神奈川県横浜市港北区日吉１－１ー１４,35.553596,139.64748
0000005113,"",三木小林東店,兵庫県三木市別所町小林６９７－３,34.77867,135.004126
0000005114,"",明石魚住清水店,兵庫県明石市魚住町清水１９２２－１,34.711176,134.902513
0000005115,"",旭川旭神２条店,北海道旭川市旭神２条４－１３６,43.733602,142.391607
0000005116,"",浦佐駅前店,新潟県南魚沼市浦佐９２６番地１,37.163516,138.927396
0000005117,"",二本松竹根通り店,福島県二本松市根崎１丁目７－１,37.596629,140.450308
0000005118,"",いわき中央台飯野店,福島県いわき市中央台飯野４－１８－１,37.015062,140.916605
0000005119,"",下妻下木戸店,茨城県下妻市下木戸３６２－５,36.192343,139.956113
0000005120,"",本郷駅東店,広島県三原市本郷南３丁目２９番２４号,34.403576,132.994909
0000005121,"",福岡長尾３丁目店,福岡県福岡市城南区長尾３－１４－５,33.551051,130.389895
0000005122,"",大宮新堤店,埼玉県さいたま市見沼区大字新堤字東９５－１,35.926887,139.678414
0000005123,"",佐久石神店,長野県佐久市中込原田１２６８－１,36.238574,138.468971
0000005124,"",ひたちなか殿山町店,茨城県ひたちなか市殿山町２－１６－２,36.349035,140.609791
0000005125,"",広島相田２丁目店,広島県広島市安佐南区相田２丁目４－３８,34.470035,132.453729
0000005126,"",広島大手町４丁目店,広島県広島市中区大手町４丁目６－１２,34.381954,132.455181
0000005127,"",岩槻上野２丁目店,埼玉県さいたま市岩槻区上野２－１－２７,35.966807,139.70456
0000005128,"",山形緑町３丁目店,山形県山形市緑町３－１－４１,38.247438,140.348377
0000005129,"",西宮大島町店,兵庫県西宮市大島町２－３２,34.757813,135.370674
0000005131,"",武雄東川登町店,佐賀県武雄市東川登町大字永野６８６１－１,33.161686,130.009504
0000005132,"",熊本長嶺小前店,熊本県熊本市東区長嶺南７丁目２３－１４,32.808617,130.781643
0000005133,"",江東東陽町駅前店,東京都江東区東陽３－２７－１８,35.667334,139.819338
0000005134,"",沼津本田町店,静岡県沼津市本田町６－１７,35.106063,138.856535
0000005135,"",文京千駄木１丁目店,東京都文京区千駄木１－２３－３,35.721643,139.763733
0000005136,"",枚方養父西店,大阪府枚方市養父西町２０－１５,34.844201,135.675432
0000005137,"",札幌あいの里２条店,北海道札幌市北区あいの里２条１丁目２１－５,43.157308,141.387587
0000005138,"",帯広卸売団地店,北海道帯広市西７条南５丁目２番地５,42.923103,143.197715
0000005139,"",天童久野本４丁目店,山形県天童市久野本４丁目１５ー３７,38.364391,140.380496
0000005140,"",茨城守谷松ヶ丘店,茨城県守谷市松ヶ丘１－１－１,35.940223,139.996513
0000005141,"",六本木３丁目店,東京都港区六本木３ー４－３１,35.661527,139.739063
0000005142,"",福岡渡辺通５丁目店,福岡県福岡市中央区渡辺通５－２０－７,33.583881,130.404699
0000005143,"",東所沢駅前店,所沢市本郷１０９１ー３,35.789654,139.517235
0000005144,"",福島蓬莱店,福島県福島市清水町字一本松３２ー１,37.692313,140.464666
0000005145,"",仙台榴ヶ岡２丁目店,宮城県仙台市宮城野区榴岡２丁目５－１９,38.257508,140.889425
0000005147,"",京都東洞院七条店,京都府京都市下京区東洞院通七条下ル塩小路町５２３,34.985081,135.763688
0000005148,"",八代古城町店,熊本県八代市古城町字新地３０２４,32.494809,130.592043
0000005149,"",泗水吉富店,熊本県菊池市泗水町吉富３１７８－１,32.933326,130.786229
0000005150,"",落合栗原店,岡山県真庭市栗原８９１－８,34.981207,133.707174
0000005151,"",中標津桜ヶ丘店,北海道標津郡中標津町東２条南１０－４－２,43.540197,144.986538
0000005152,"",浦和白幡６丁目店,埼玉県さいたま市南区白幡６－１１－６,35.834393,139.655136
0000005153,"",大平西野田店,栃木県栃木市大平町新１０２０,36.325488,139.716169
0000005154,"",ひたち野牛久店,茨城県牛久市ひたち野東５丁目８－２,36.001818,140.165808
0000005155,"",水戸南町３丁目店,茨城県水戸市南町３丁目３－２８,36.374026,140.470299
0000005156,"",長柄国府里店,千葉県長生郡長柄町国府里５３６－１,35.452874,140.251275
0000005157,"",川崎末長東店,神奈川県川崎市高津区末長４丁目２４－２０,35.585816,139.629672
0000005158,"",大阪十三東１丁目店,大阪府大阪市淀川区十三東１－９－５,34.71692,135.489593
0000005160,"",伊勢崎新栄町店,群馬県伊勢崎市新栄町３８３５－２,36.30452,139.194046
0000005161,"",尼崎上坂部３丁目店,兵庫県尼崎市上坂部３丁目２０８番,34.747126,135.433457
0000005162,"",山田前坂店,宮崎県都城市山田町中霧島３３２０－１５,31.792025,131.05409
0000005163,"",会津門田村西店,福島県会津若松市飯寺南２丁目１０番１号,37.469068,139.907449
0000005164,"",大河原高砂町店,宮城県柴田郡大河原町字高砂町３－４,38.05011,140.752191
0000005165,"",堺中百舌鳥駅南口店,大阪府堺市北区中百舌鳥町５丁１６番,34.552598,135.506424
0000005166,"",長野中央通り店,長野県長野市南長野西後町１６２０,36.650256,138.190229
0000005167,"",富里日吉台店,千葉県富里市日吉台５丁目１番１号,35.761343,140.324222
0000005168,"",つくば吾妻３丁目店,茨城県つくば市吾妻３－１６－９,36.084798,140.118319
0000005169,"",いわき平愛谷町店,福島県いわき市平字愛谷町１丁目８－４,37.046368,140.908894
0000005170,"",市原松ヶ島店,千葉県市原市松ヶ島１丁目４番地１７,35.506932,140.070822
0000005171,"",新宿高田馬場１の南店,東京都新宿区高田馬場１－２２－５,35.707032,139.70756
0000005172,"",大阪平野駅前店,大阪府大阪市平野区背戸口５－７－１３,34.617804,135.551307
0000005173,"",竜ケ崎藤ヶ丘１丁目店,茨城県龍ケ崎市藤ヶ丘１丁目２－２,35.933201,140.204461
0000005174,"",足立東保木間１丁目店,東京都足立区東保木間１－１３－３,35.785899,139.816505
0000005175,"",国分寺日吉町４丁目店,東京都国分寺市日吉町４丁目１７番１９,35.701413,139.464421
0000005176,"",大阪九条南２丁目店,大阪府大阪市西区九条南２－６－１０,34.670901,135.475471
0000005177,"",行橋辻垣店,福岡県行橋市大字辻垣字ムカイ２４３－４,33.701854,131.003523
0000005178,"",長岡浦瀬町店,新潟県長岡市浦瀬町字石ノ下１２９３－２,37.46619,138.907852
0000005179,"",日野駅前店,東京都日野市日野本町３－１１－１０,35.676068,139.397607
0000005180,"",川崎馬絹西店,神奈川県川崎市宮前区馬絹６丁目５番３号,35.579632,139.595027
0000005181,"",鳥栖弥生が丘店,佐賀県鳥栖市弥生ヶ丘６丁目１１３,33.398875,130.517588
0000005182,"",川口青木３丁目店,埼玉県川口市青木３－８－３５,35.808399,139.728799
0000005183,"",廿日市陽光台店,広島県廿日市市陽光台５丁目１３－４,34.352426,132.309951
0000005184,"",横浜立場駅前店,神奈川県横浜市泉区中田西１－１－２７,35.411298,139.503333
0000005185,"",宇都宮東今泉店,栃木県宇都宮市中今泉４丁目３０－６,36.565891,139.913749
0000005186,"",千葉畑町店,千葉県千葉市花見川区朝日ヶ丘５－３２－２５,35.657376,140.089164
0000005187,"",札幌新琴似２条店,北海道札幌市北区新琴似２条１３丁目９－１２,43.112146,141.309701
0000005188,"",米沢杉の目町店,山形県米沢市杉の目町字反町１７２８ー４,37.883318,140.107926
0000005189,"",小山東間々田店,栃木県小山市東間々田３丁目１１９－１,36.260094,139.772691
0000005190,"",四街道めいわ２丁目店,千葉県四街道市めいわ２丁目１７－１,35.652021,140.176983
0000005191,"",品川南大井３丁目店,東京都品川区南大井３－３０－８,35.584543,139.737741
0000005194,"",八幡友田１丁目店,福岡県北九州市八幡西区友田１丁目１１－５,33.864064,130.726529
0000005195,"",稲城大丸東店,東京都稲城市大丸６９０－７,35.641643,139.500958
0000005196,"",若松高須東４丁目店,福岡県北九州市若松区高須東４－１－２０,33.887576,130.693107
0000005197,"",いわき内郷みまや店,福島県いわき市内郷御厩町上宿７０,37.04371,140.876321
0000005198,"",大網白里南横川店,千葉県大網白里市南横川３０９４－５,35.487346,140.351283
0000005199,"",下諏訪湖岸通り店,長野県諏訪郡下諏訪町高木１０６１６－１３７,36.060276,138.108441
0000005200,"",東神楽南１条店,北海道上川郡東神楽町南１条東１丁目１番３号,43.694591,142.458146
0000005201,"",長野平林店,長野県長野市平林２丁目１１番４０号,36.650979,138.215808
0000005202,"",小諸芦原店,長野県小諸市新町１丁目５番１３号,36.329535,138.419254
0000005203,"",函館五稜郭病院前店,北海道函館市杉並町１３－７,41.789366,140.759138
0000005205,"",川崎塩浜店,神奈川県川崎市川崎区夜光１－７－９,35.522282,139.752807
0000005206,"",高根箕輪店,山梨県北杜市高根町箕輪３１９８－３,35.809609,138.432435
0000005207,"",大田区南馬込２丁目店,東京都大田区南馬込２－１９－３,35.58461,139.716461
0000005208,"",福岡警固２丁目店,福岡県福岡市中央区警固２－１７－３０,33.581193,130.392445
0000005209,"",菊陽バイパス店,熊本県菊池郡菊陽町大字津久礼２５２１番地７,32.857187,130.807846
0000005210,"",宮崎池内町店,宮崎県宮崎市池内町１１０２－１,31.958664,131.41709
0000005212,"",北越谷駅東口店,埼玉県越谷市大沢３－１１－２,35.899852,139.784611
0000005213,"",郡山奥羽大学前店,福島県郡山市富田東５丁目４１５,37.41751,140.373619
0000005214,"",広島中央郵便局前店,広島県広島市中区大手町３－７－１０,34.384248,132.457149
0000005215,"",上峰町役場前店,佐賀県三養基郡上峰町大字坊所３９０－４,33.317493,130.428546
0000005216,"",信州北御牧村店,長野県東御市島川原６５５－１,36.329551,138.354894
0000005217,"",神栖息栖店,茨城県神栖市大野原中央３丁目８番１７号,35.887571,140.636261
0000005218,"",堺八田北町店,大阪府堺市中区小阪７６－６,34.520954,135.490404
0000005219,"",大江本郷店,山形県西村山郡大江町大字本郷己３１３－１,38.37421,140.197244
0000005220,"",村山金谷工業団地前店,山形県村山市大字タモ山４６００－３４,38.511799,140.397088
0000005222,"",大田区蒲田５丁目店,東京都大田区蒲田５－４９－１２,35.556191,139.720624
0000005223,"",横浜伊勢佐木町４丁目店,神奈川県横浜市中区伊勢佐木町４丁目１１２－２,35.438221,139.632216
0000005224,"",大阪福島７丁目店,大阪府大阪市福島区福島７－４－２１,34.694132,135.487424
0000005225,"",山口桜畠店,山口県山口市桜畠１丁目３－５４,34.188068,131.498728
0000005228,"",川口駅東口店,埼玉県川口市川口１－１－１－Ｂ１０４,35.798421,139.722072
0000005229,"",船橋山手店,千葉県船橋市山手１－１－３,35.712332,139.97833
0000005230,"",千葉高洲３丁目店,千葉県千葉市美浜区高洲３－１４－６,35.62476,140.077427
0000005231,"",下越津川店,新潟県東蒲原郡阿賀町津川６２６番１号,37.671088,139.463072
0000005232,"",横浜井土ヶ谷中町店,神奈川県横浜市南区井土ヶ谷中町１－１７,35.426798,139.607319
0000005233,"",ひたちなか寄居店,茨城県ひたちなか市田彦１００３－５,36.418968,140.519372
0000005234,"",横浜伊勢佐木町７丁目店,神奈川県横浜市中区伊勢佐木町７－１５４－２,35.434713,139.626616
0000005235,"",山形西田１丁目店,山形県山形市西田１丁目１－１５,38.259079,140.321882
0000005236,"",つくば大曽根店,茨城県つくば市筑穂１－１６－９,36.131574,140.085319
0000005237,"",佐野若宮上町店,栃木県佐野市植下町１１０３,36.296321,139.592038
0000005238,"",伊勢崎韮塚町店,群馬県伊勢崎市韮塚町１２１１－５,36.304593,139.179158
0000005239,"",千葉さつきが丘店,千葉県千葉市花見川区さつきが丘１－２８－１,35.659682,140.09678
0000005240,"",杉並堀ノ内１丁目店,東京都杉並区堀ノ内１ー５ー１,35.680129,139.658599
0000005242,"",新潟逢谷内店,新潟県新潟市東区逢谷内３－１－３９,37.917496,139.12038
0000005243,"",大阪同心２丁目店,大阪府大阪市北区同心２丁目１５－２７,34.699517,135.520177
0000005244,"",稲美国岡店,兵庫県加古郡稲美町国岡２丁目１１ー１０,34.74541,134.913304
0000005246,"",君津南子安４丁目店,千葉県君津市南子安４丁目１－１,35.322373,139.915794
0000005247,"",上山金生店,山形県上山市金生西３丁目４番１２号,38.13636,140.287377
0000005248,"",福島大附属小前店,福島県福島市宮下町１５－２０,37.757868,140.47116
0000005249,"",木更津東太田２丁目店,千葉県木更津市東太田２－１６－１１,35.372118,139.957236
0000005250,"",調布染地２丁目店,東京都調布市染地２－３－１,35.640057,139.554424
0000005251,"",中野駅北口店,東京都中野区中野５－６６－４,35.70453,139.668591
0000005252,"",桐生川内３丁目店,群馬県桐生市川内町３－１２４－８,36.425485,139.305716
0000005253,"",浦和内谷４丁目店,埼玉県さいたま市南区内谷４丁目１９番１号,35.830009,139.644225
0000005254,"",南箕輪神子柴店,長野県上伊那郡南箕輪村７４１７－１,35.85704,137.974513
0000005255,"",佐世保江上町店,長崎県佐世保市江上町９３６－１,33.100764,129.77269
0000005256,"",甲府市城東４丁目店,山梨県甲府市城東４丁目１３番７号,35.653863,138.58553
0000005257,"",最上向町店,山形県最上郡最上町大字向町１１９－１,38.75243,140.519291
0000005258,"",矢本インター店,宮城県東松島市矢本字西新町１－９,38.420143,141.207319
0000005259,"",加東上滝野店,兵庫県加東市上滝野２５８－１,34.943493,134.964337
0000005260,"",宇都宮清原台みなみ店,栃木県宇都宮市清原台６－３－３,36.542473,140.00486
0000005261,"",庄原板橋町店,広島県庄原市板橋町３３－１,34.847706,133.017218
0000005262,"",江戸川南篠崎２丁目店,東京都江戸川区南篠崎町２－３８－１６,35.689996,139.905535
0000005264,"",千葉みつわ台店,千葉県千葉市若葉区みつわ台２－１０－２３,35.635974,140.134286
0000005265,"",佐波東運動公園前店,群馬県伊勢崎市田部井町二丁目４４０－２,36.34524,139.255215
0000005266,"",神栖萩原店,茨城県神栖市萩原８８０－２,35.864091,140.667975
0000005267,"",下館小川店,茨城県筑西市小川１２０７－１１,36.309829,139.922097
0000005268,"",杷木町店,福岡県朝倉市杷木林田８０９－１,33.354173,130.822807
0000005269,"",浦和常盤５丁目店,埼玉県さいたま市浦和区常盤５－１７－１２,35.861318,139.649786
0000005270,"",東広島駅前店,広島県東広島市三永２丁目６－３０,34.384548,132.762959
0000005271,"",大牟田銀水店,福岡県大牟田市大字草木４６２－１,33.045417,130.463689
0000005272,"",深谷東方５丁目店,埼玉県深谷市東方町５丁目２０番１３,36.179424,139.325091
0000005273,"",南陽西工業団地前店,山形県南陽市漆山字西高堰二１１０５,38.061249,140.12451
0000005274,"",入間中神店,埼玉県入間市中神５１０－１,35.817479,139.355969
0000005275,"",渋谷本町４丁目店,東京都渋谷区本町４－１９－４,35.684974,139.682938
0000005277,"",文京小石川１丁目店,東京都文京区小石川１ー１０－５,35.708721,139.754877
0000005278,"",拝島駅南口店,東京都昭島市松原町４－１１－１０,35.716216,139.347102
0000005279,"",西宮下山口５丁目店,兵庫県西宮市山口町下山口５丁目１３－３５,34.826442,135.247568
0000005280,"",最上大堀店,山形県最上郡最上町大字志茂１７０１－１,38.763616,140.477669
0000005281,"",藪塚町藪塚店,群馬県太田市薮塚町１２０７－１,36.361471,139.311549
0000005282,"",四街道めいわ４丁目店,千葉県四街道市めいわ４丁目２３－１,35.644819,140.161649
0000005283,"",裾野深良店,静岡県裾野市深良４２１－１４,35.192779,138.916886
0000005284,"",岡山金岡東１丁目店,岡山県岡山市東区金岡東町１－１１－６０,34.642368,134.029587
0000005285,"",羽黒押口店,山形県鶴岡市羽黒町押口字川端１３－３６,38.734291,139.861549
0000005286,"",篠ノ井会店,長野県長野市篠ノ井会７７４－１,36.569551,138.157382
0000005287,"",墨田文花店,東京都墨田区文花３－２３－８,35.70766,139.831669
0000005288,"",豊栄駅北店,新潟県新潟市北区石動１－１６－１０,37.919082,139.215771
0000005289,"",藤沢渋沢店,神奈川県藤沢市善行７ー１０ー４,35.35889,139.481919
0000005290,"",上三川上蒲生店,栃木県河内郡上三川町大字上蒲生２１７４－１,36.447799,139.908625
0000005291,"",茂原長尾店,千葉県茂原市長尾１９８０－１,35.450616,140.293021
0000005292,"",目黒東山３丁目店,東京都目黒区東山３－７－１１,35.646417,139.690888
0000005293,"",大田区南蒲田１丁目店,東京都大田区南蒲田１－２５－１,35.554165,139.728183
0000005294,"",春日桜ヶ丘４丁目店,福岡県春日市桜ヶ丘４丁目２４番地,33.540973,130.450349
0000005295,"",八代海士江町店,熊本県八代市海士江町２３２８－７,32.525576,130.628165
0000005296,"",神戸ウィングスタジアム前店,兵庫県神戸市兵庫区吉田町２丁目３６番１１号,34.651276,135.170688
0000005298,"",東船橋２丁目店,千葉県船橋市東船橋２－１０－１２,35.697982,140.007738
0000005299,"",松尾八田店,千葉県山武市松尾町八田２５６７,35.64651,140.469783
0000005301,"",松戸日暮６丁目店,千葉県松戸市日暮６－１１３,35.787713,139.946716
0000005302,"",倉敷安江店,岡山県倉敷市安江３９４番地の２,34.593215,133.754076
0000005303,"",別海西春別店,北海道野付郡別海町西春別駅前錦町１７０,43.410522,144.767486
0000005304,"",中野市南宮店,長野県中野市大字中野字南宮３５４－１,36.735819,138.371708
0000005305,"",帯広大通南２２丁目店,北海道帯広市大通南２２丁目５番地,42.904647,143.210696
0000005306,"",北区西ヶ原４丁目店,東京都北区西ヶ原４－４９－３,35.740471,139.736977
0000005307,"",韮崎藤井町店,山梨県韮崎市藤井町北下条４３０－１,35.72296,138.450468
0000005308,"",富士市松岡南店,静岡県富士市松富町５,35.146971,138.640152
0000005309,"",寺泊大河津店,新潟県長岡市寺泊北曽根大溜２０９８－１,37.611601,138.82053
0000005310,"",神戸東山町店,兵庫県神戸市兵庫区東山町２丁目６－６,34.678909,135.165938
0000005312,"",葛飾東立石４丁目店,東京都葛飾区東立石４－５５－４,35.733507,139.851274
0000005313,"",福岡東油山店,福岡県福岡市城南区東油山１－１１－１,33.532412,130.384115
0000005314,"",庄原山内店,広島県庄原市山内町４４１－１,34.830146,132.957593
0000005316,"",浜松神原町店,静岡県浜松市中央区神原町８１６－２,34.731329,137.676721
0000005317,"",横浜小机町店,神奈川県横浜市港北区小机町４５０－１,35.505107,139.594171
0000005318,"",館山那古海岸店,千葉県館山市那古１４９７－１,35.015687,139.860444
0000005319,"",古河松並店,茨城県古河市松並１－２５－１２,36.202996,139.712094
0000005320,"",渋谷セルリアンタワー店,東京都渋谷区桜丘町２６－１,35.653174,139.702689
0000005321,"",信濃池田会染店,長野県北安曇郡池田町大字会染９００７－２３,36.381118,137.891976
0000005322,"",新白河４丁目店,福島県白河市新白河４－６４－１,37.115513,140.193108
0000005323,"",愛別町店,北海道上川郡愛別町字本町１４０番地,43.906197,142.576841
0000005324,"",中標津東中店,北海道標津郡中標津町東１１条北５丁目４－１,43.554877,144.983182
0000005325,"",阿蘇西原店,熊本県阿蘇郡西原村大字小森２９１６－１,32.834759,130.905185
0000005326,"",多賀城高崎３丁目店,宮城県多賀城市高崎３丁目２４－７,38.292812,141.001794
0000005327,"",美和鷲子店,茨城県常陸大宮市鷲子３８７２,36.652627,140.284874
0000005328,"",古河南店,茨城県古河市大字坂間２５６－６,36.164862,139.711288
0000005331,"",白金台駅前店,東京都港区白金台３丁目２番３号,35.634307,139.729144
0000005332,"",釧路新富士５丁目店,北海道釧路市新富士町５丁目３－１１,43.005127,144.347638
0000005333,"",杉並成田東１丁目店,東京都杉並区成田東１丁目３２－１２,35.688882,139.640889
0000005334,"",長岡中沢４丁目店,新潟県長岡市中沢４丁目３１７,37.438049,138.874427
